id;enseigne_actuelle;statut_enseigne;suggestions_enseigne;adresse;cp;ville;latitude;longitude;source_enseigne;osm_id;motifs_controle;signature;enseigne_corrigee;decision;commentaire
56580001;U;a_completer;;16 rue chateaubriand;56580;Bréhan;48.061;-2.69;OpenStreetMap;node/3489531057;;16 rue chateaubriand|56580|bréhan;;;
77141003;AviaXpress;ok_osm;Avia;RN4 route de Pecy, lieu dit Lugins;77141;Vaudoy-en-Brie;48.684091;3.087163;OpenStreetMap;node/6815607655;adresse BAN eloignee des coordonnees;rn4 route de pecy, lieu dit lugins|77141|vaudoy-en-brie;;;
24230002;;a_completer;;26 Avenue del peirigord;24230;Vélines;44.852;0.104;;;enseigne inconnue | adresse BAN eloignee des coordonnees | correspondance OpenStreetMap ambigue;26 avenue del peirigord|24230|vélines;;;
3210001;;a_completer;;1 ROUTE DE COSNE;03210;Souvigny;46.536;3.203;;;enseigne inconnue | adresse BAN eloignee des coordonnees | aucune station OpenStreetMap proche;1 route de cosne|03210|souvigny;;;
77550004;;a_completer;;AUTOROUTE A5B - AIRE DE GALANDE-LA-MARE-LAROCHE;77550;Évry-Grégy-sur-Yerre;48.626;2.63;;;enseigne inconnue | adresse BAN eloignee des coordonnees | aucune station OpenStreetMap proche;autoroute a5b - aire de galande-la-mare-laroche|77550|évry-grégy-sur-yerre;;;
74330002;;a_completer;;Route Nationale 508;74330;Epagny Metz-Tessy;45.941;6.088;;;enseigne inconnue | adresse BAN eloignee des coordonnees | aucune station OpenStreetMap proche;route nationale 508|74330|epagny metz-tessy;;;
71000020;;a_completer;;Rue Frédéric Mistral;71000;Mâcon;46.292;4.811;;;enseigne inconnue | correspondance OpenStreetMap ambigue;rue frédéric mistral|71000|mâcon;;;
14130010;;a_completer;;AIRE DE QUETTEVILLE A29;14130;Quetteville;49.336906;0.308019;;;enseigne inconnue | adresse BAN eloignee des coordonnees | aucune station OpenStreetMap proche;aire de quetteville a29|14130|quetteville;;;
86000021;;a_completer;;70, avenue John Kennedy;86000;Poitiers;46.589;0.36;;;enseigne inconnue | adresse BAN eloignee des coordonnees | correspondance OpenStreetMap ambigue;70, avenue john kennedy|86000|poitiers;;;
53140001;;a_completer;;zone Normandie Maine;53140;Pré-en-Pail-Saint-Samson;48.459277;-0.201908;;;enseigne inconnue | adresse BAN eloignee des coordonnees | aucune station OpenStreetMap proche;zone normandie maine|53140|pré-en-pail-saint-samson;;;
29510005;;a_completer;;Rue d'Armor;29170;Saint-Évarzec;47.938;-4.023;;;enseigne inconnue | adresse BAN eloignee des coordonnees | correspondance OpenStreetMap ambigue;rue d'armor|29170|saint-évarzec;;;
62560002;;a_completer;;26 RUE PRINCIPALE;62560;Dennebrœucq;50.571189;2.150657;;;;26 rue principale|62560|dennebrœucq;;;
82700001;;a_completer;;171 Avenue d'Auch;82700;Montech;43.956;1.221;;;enseigne inconnue | adresse BAN eloignee des coordonnees | correspondance OpenStreetMap ambigue;171 avenue d'auch|82700|montech;;;
59760001;;a_completer;;Avenue de l'Ancien Village;59760;Grande-Synthe;51.011;2.293;;;enseigne inconnue | aucune station OpenStreetMap proche;avenue de l'ancien village|59760|grande-synthe;;;
82710003;;a_completer;Esso;Aire de Nauze Vert, RN 20;82710;Bressols;43.968;1.339;;;enseigne inconnue | adresse BAN eloignee des coordonnees | aucune station OpenStreetMap proche;aire de nauze vert, rn 20|82710|bressols;;;
83600020;;a_completer;;100 RDN 7 AV.DE VERDUN;83600;Fréjus;43.43809;6.719088;;;enseigne inconnue | adresse BAN eloignee des coordonnees | correspondance OpenStreetMap ambigue;100 rdn 7 av.de verdun|83600|fréjus;;;
79000015;;a_completer;;130 Avenue de NANTES;79000;Saint-Rémy;46.348104;-0.509968;;;enseigne inconnue | adresse BAN eloignee des coordonnees | aucune station OpenStreetMap proche;130 avenue de nantes|79000|saint-rémy;;;
84840003;U;a_completer;;81 Avenue de Montélimar;84840;Lapalud;44.312;4.686;OpenStreetMap;way/1134268514;;81 avenue de montélimar|84840|lapalud;;;
84200008;Independent;a_completer;;2875 Route de malaucene;84200;Carpentras;44.0811865;5.0678917;OpenStreetMap;node/1332513206;;2875 route de malaucene|84200|carpentras;;;
21500002;;a_completer;;Rue de Dijon;21500;Montbard;47.62499;4.3466;;;enseigne inconnue | correspondance OpenStreetMap ambigue;rue de dijon|21500|montbard;;;
6640002;U;a_completer;;QUARTIER LE PEYRON;06640;Saint-Jeannet;43.743573;7.146356;OpenStreetMap;node/1329928757;adresse BAN eloignee des coordonnees;quartier le peyron|06640|saint-jeannet;;;
52540001;;a_completer;;RUE PASTEUR;62540;Marles-les-Mines;50.503;2.508;;;enseigne inconnue | correspondance OpenStreetMap ambigue;rue pasteur|62540|marles-les-mines;;;
39120002;;a_completer;;Route de Longwy;39120;Chaussin;46.958;5.409;;;enseigne inconnue | adresse BAN eloignee des coordonnees | correspondance OpenStreetMap ambigue;route de longwy|39120|chaussin;;;
49330004;;a_completer;;ROUTE D'ANGERS;49330;Les Hauts-d'Anjou;47.664215;-0.56046;;;enseigne inconnue | adresse BAN eloignee des coordonnees | aucune station OpenStreetMap proche;route d'angers|49330|les hauts-d'anjou;;;
85150001;U;a_completer;;1 rue des Blés, La Mothe Achard;85150;Les Achards;46.607;-1.664;OpenStreetMap;way/107962032;correspondance OpenStreetMap ambigue;1 rue des blés, la mothe achard|85150|les achards;;;
8210001;;a_completer;;Avenue de la Paix;08210;Mouzon;49.61023;5.07788;;;enseigne inconnue | adresse BAN eloignee des coordonnees | correspondance OpenStreetMap ambigue;avenue de la paix|08210|mouzon;;;
33370007;;a_completer;;Bois Menu - Val Laurence;33370;Fargues-Saint-Hilaire;44.825;-0.444;;;enseigne inconnue | correspondance OpenStreetMap ambigue;bois menu - val laurence|33370|fargues-saint-hilaire;;;
91430003;;a_completer;;ROUTE NATIONALE 444;91430;Igny;48.735;2.225;;;enseigne inconnue | adresse BAN eloignee des coordonnees | aucune station OpenStreetMap proche;route nationale 444|91430|igny;;;
4320001;;a_completer;;STATION RN 4202;04320;Entrevaux;43.949;6.81;;;enseigne inconnue | adresse BAN eloignee des coordonnees | aucune station OpenStreetMap proche;station rn 4202|04320|entrevaux;;;
88250003;;a_completer;Esso;2 bis route de Cornimont;88250;Rochesson;48.004;6.834;;;enseigne inconnue | adresse BAN eloignee des coordonnees | aucune station OpenStreetMap proche;2 bis route de cornimont|88250|rochesson;;;
28700004;U;a_completer;;Zac du Pays Alnelois;28700;Auneau-Bleury-Saint-Symphorien;48.477085;1.767638;OpenStreetMap;way/184302317;;zac du pays alnelois|28700|auneau-bleury-saint-symphorien;;;
9270003;;a_completer;;LIEU DIT LE RAUNIER;09270;Mazères;43.251;1.678;;;enseigne inconnue | adresse BAN eloignee des coordonnees | aucune station OpenStreetMap proche;lieu dit le raunier|09270|mazères;;;
29710004;U;a_completer;;RUE DES ECOLES;29710;Landudec;48.001;-4.336;OpenStreetMap;way/263328439;adresse BAN eloignee des coordonnees;rue des ecoles|29710|landudec;;;
68124002;;a_completer;;1 ROUTE DE TURCKHEIM;68124;Wintzenheim;48.08594;7.31377;;;enseigne inconnue | adresse BAN eloignee des coordonnees | correspondance OpenStreetMap ambigue;1 route de turckheim|68124|wintzenheim;;;
44530003;U;a_completer;;route de Pontchâteau;44530;Saint-Gildas-des-Bois;47.50937;-2.04035;OpenStreetMap;node/25209866;;route de pontchâteau|44530|saint-gildas-des-bois;;;
31210001;;a_completer;;Avenue de Luchon;31210;Gourdan-Polignan;43.06544;0.58785;;;enseigne inconnue | adresse BAN eloignee des coordonnees | correspondance OpenStreetMap ambigue;avenue de luchon|31210|gourdan-polignan;;;
36100003;;a_completer;;RN 151;36100;Saint-Aoustrille;46.938;1.947;;;enseigne inconnue | adresse BAN eloignee des coordonnees | aucune station OpenStreetMap proche;rn 151|36100|saint-aoustrille;;;
45320004;;a_completer;;RUE DES PATUREAUX;45320;Courtenay;48.037;3.047;;;enseigne inconnue | correspondance OpenStreetMap ambigue;rue des patureaux|45320|courtenay;;;
60650006;;a_completer;;RN31 - LE VIVIER DANGER;60650;Ons-en-Bray;49.417;1.924;;;enseigne inconnue | adresse BAN eloignee des coordonnees | aucune station OpenStreetMap proche;rn31 - le vivier danger|60650|ons-en-bray;;;
57730001;;a_completer;;RD 910 A;57730;Valmont;49.077;6.693;;;enseigne inconnue | aucune station OpenStreetMap proche;rd 910 a|57730|valmont;;;
56150001;;a_completer;;ZA de Kermestre;56150;Baud;47.877;-3.02;;;enseigne inconnue | adresse BAN eloignee des coordonnees | correspondance OpenStreetMap ambigue;za de kermestre|56150|baud;;;
17470001;;a_completer;;Route de Poitiers;17470;Aulnay;46.029;-0.351;;;enseigne inconnue | adresse BAN eloignee des coordonnees | correspondance OpenStreetMap ambigue;route de poitiers|17470|aulnay;;;
38220001;;a_completer;;RN 91;38220;Vizille;45.078;5.773;;;enseigne inconnue | adresse BAN eloignee des coordonnees | aucune station OpenStreetMap proche;rn 91|38220|vizille;;;
20600004;;a_completer;;Rond Point de Furiani;20600;Furiani;42.66306;9.43007;;;enseigne inconnue | adresse BAN eloignee des coordonnees | aucune station OpenStreetMap proche;rond point de furiani|20600|furiani;;;
14210001;;a_completer;;ZA LA CROIX BOUCHER;14210;Évrecy;49.10372;-0.50006;;;enseigne inconnue | adresse BAN eloignee des coordonnees | correspondance OpenStreetMap ambigue;za la croix boucher|14210|évrecy;;;
63550001;;a_completer;;10 ROUTE DU LAC;63550;Saint-Rémy-sur-Durolle;45.889;3.596;;;enseigne inconnue | adresse BAN eloignee des coordonnees | correspondance OpenStreetMap ambigue;10 route du lac|63550|saint-rémy-sur-durolle;;;
21300004;;a_completer;;AVENUE ROLAND CARRAZ;21300;Chenôve;47.29307;5.01616;;;enseigne inconnue | aucune station OpenStreetMap proche;avenue roland carraz|21300|chenôve;;;
81400001;U;a_completer;;150 Avenue d'Albi;81400;Blaye-les-Mines;44.027;2.155;OpenStreetMap;node/25210924;;150 avenue d'albi|81400|blaye-les-mines;;;
57970002;;a_completer;;Parc Unicom;57970;Basse-Ham;49.375;6.229;;;enseigne inconnue | adresse BAN eloignee des coordonnees | aucune station OpenStreetMap proche;parc unicom|57970|basse-ham;;;
95420005;;a_completer;;RN 14;95420;Charmont;49.13514;1.78964;;;enseigne inconnue | aucune station OpenStreetMap proche;rn 14|95420|charmont;;;
92230010;;a_completer;;113 AV LAURENT CELY;92230;Gennevilliers;48.92082;2.30617;;;enseigne inconnue | correspondance OpenStreetMap ambigue;113 av laurent cely|92230|gennevilliers;;;
16150003;;a_completer;;ZA DE CHASSAT;16150;Chabanais;45.878;0.726;;;enseigne inconnue | adresse BAN eloignee des coordonnees | aucune station OpenStreetMap proche;za de chassat|16150|chabanais;;;
77140010;;a_completer;;Autoroute du Soleil - AIRE DE NEMOURS OUEST;77140;Nemours;48.261702;2.722037;;;enseigne inconnue | adresse BAN eloignee des coordonnees | correspondance OpenStreetMap ambigue;autoroute du soleil - aire de nemours ouest|77140|nemours;;;
20220006;;a_completer;;RN 197;20220;Aregno;42.609;8.875;;;enseigne inconnue | adresse BAN eloignee des coordonnees | correspondance OpenStreetMap ambigue;rn 197|20220|aregno;;;
58320001;;a_completer;;ROUTE DE PARIS;58320;Pougues-les-Eaux;47.07736;3.09879;;;enseigne inconnue | aucune station OpenStreetMap proche;route de paris|58320|pougues-les-eaux;;;
91590009;;a_completer;;RN191 - ROUTE DE CORBEIL;91590;Baulne;48.507;2.37442;;;enseigne inconnue | adresse BAN eloignee des coordonnees | aucune station OpenStreetMap proche;rn191 - route de corbeil|91590|baulne;;;
73140003;;a_completer;;14 bis rue du Temple;73140;Saint-Martin-d'Arc;45.22;6.459;;;enseigne inconnue | adresse BAN eloignee des coordonnees | correspondance OpenStreetMap ambigue;14 bis rue du temple|73140|saint-martin-d'arc;;;
55320001;;a_completer;;Lieu-dit le moulin Charlier;55320;Dieue-sur-Meuse;49.077;5.448;;;enseigne inconnue | adresse BAN eloignee des coordonnees | aucune station OpenStreetMap proche;lieu-dit le moulin charlier|55320|dieue-sur-meuse;;;
69380009;;a_completer;;A6 Aire des Cheres Ouest;69380;Les Chères;45.895;4.732;;;enseigne inconnue | adresse BAN eloignee des coordonnees | aucune station OpenStreetMap proche;a6 aire des cheres ouest|69380|les chères;;;
60510001;;a_completer;;ZONE DE LA COUTURELLE;60510;Bresles;49.419;2.255;;;enseigne inconnue | adresse BAN eloignee des coordonnees | aucune station OpenStreetMap proche;zone de la couturelle|60510|bresles;;;
63450002;;a_completer;;CD 213;63450;Saint-Amant-Tallende;45.669;3.109;;;enseigne inconnue | aucune station OpenStreetMap proche;cd 213|63450|saint-amant-tallende;;;
54120004;;a_completer;;Route de Lachapelle;54120;Deneuvre;48.442;6.737;;;enseigne inconnue | adresse BAN eloignee des coordonnees | correspondance OpenStreetMap ambigue;route de lachapelle|54120|deneuvre;;;
35200008;U;a_completer;;7 boulevard de l'yser;35200;Rennes;48.092;-1.68;OpenStreetMap;node/4200542678;;7 boulevard de l'yser|35200|rennes;;;
89140004;E.Leclerc;a_verifier_osm_ambigu;E.Leclerc;32 B AVENUE GENERAL LECLERC;89140;Pont-sur-Yonne;48.284;3.212;Adresse officielle;node/1835420122;correspondance OpenStreetMap ambigue;32 b avenue general leclerc|89140|pont-sur-yonne;;;
1700004;;a_completer;;ZAC des Baterses;01700;Beynost;45.826;4.999;;;enseigne inconnue | adresse BAN eloignee des coordonnees | correspondance OpenStreetMap ambigue;zac des baterses|01700|beynost;;;
70270001;;a_completer;;25 Route de Lure;70270;Mélisey;47.74964;6.56445;;;enseigne inconnue | adresse BAN eloignee des coordonnees | correspondance OpenStreetMap ambigue;25 route de lure|70270|mélisey;;;
19510002;;a_completer;;AUTOROUTE A20 - AIRE DE PORTE DE CORREZE;19510;Masseret;45.54068;1.52039;;;enseigne inconnue | adresse BAN eloignee des coordonnees | aucune station OpenStreetMap proche;autoroute a20 - aire de porte de correze|19510|masseret;;;
19600001;;a_completer;;Les Combettes;19270;Ussac;45.195;1.542;;;enseigne inconnue | adresse BAN eloignee des coordonnees | aucune station OpenStreetMap proche;les combettes|19270|ussac;;;
76590002;;a_completer;;Route de Newton Longueville;76590;Longueville-sur-Scie;49.79545;1.10615;;;enseigne inconnue | correspondance OpenStreetMap ambigue;route de newton longueville|76590|longueville-sur-scie;;;
19100016;;a_completer;;108 AVENUE PIERRE SEMARD;19100;Brive-la-Gaillarde;45.156;1.518;;;enseigne inconnue | adresse BAN eloignee des coordonnees | correspondance OpenStreetMap ambigue;108 avenue pierre semard|19100|brive-la-gaillarde;;;
21400010;Independent;a_completer;;15 rue courcelles prevoires;21400;Châtillon-sur-Seine;47.8634;4.571664;OpenStreetMap;node/1265029555;;15 rue courcelles prevoires|21400|châtillon-sur-seine;;;
20219003;;a_completer;;RT 20;20219;Vivario;42.172;9.17;;;enseigne inconnue | adresse BAN eloignee des coordonnees | aucune station OpenStreetMap proche;rt 20|20219|vivario;;;
65240001;;a_completer;;LIEU DIT PLAS;65240;Arreau;42.899226;0.353642;;;enseigne inconnue | adresse BAN eloignee des coordonnees | correspondance OpenStreetMap ambigue;lieu dit plas|65240|arreau;;;
62230001;;a_completer;;Boulevard Raymond Splingard;62230;Saint-Étienne-au-Mont;50.651;1.609;;;enseigne inconnue | adresse BAN eloignee des coordonnees | aucune station OpenStreetMap proche;boulevard raymond splingard|62230|saint-étienne-au-mont;;;
13370006;;a_completer;;Avenue du Pont Royal;13370;Mallemort;43.708;5.2;;;enseigne inconnue | adresse BAN eloignee des coordonnees | correspondance OpenStreetMap ambigue;avenue du pont royal|13370|mallemort;;;
79300007;;a_completer;;1 RUE JEAN GIONO;79300;Bressuire;46.850494;-0.47524;;;enseigne inconnue | adresse BAN eloignee des coordonnees | correspondance OpenStreetMap ambigue;1 rue jean giono|79300|bressuire;;;
13300009;;a_completer;;Route Nationale 113;13300;Salon-de-Provence;43.61236;5.096262;;;enseigne inconnue | correspondance OpenStreetMap ambigue;route nationale 113|13300|salon-de-provence;;;
65110003;;a_completer;;route pierrefitte;65110;Cauterets;42.89995;-0.10814;;;enseigne inconnue | adresse BAN eloignee des coordonnees | aucune station OpenStreetMap proche;route pierrefitte|65110|cauterets;;;
80460003;E.Leclerc;a_verifier_osm_ambigu;E.Leclerc;Avenue du Général Leclerc;80460;Ault;50.09824;1.4559;Adresse officielle;node/12886023659;correspondance OpenStreetMap ambigue;avenue du général leclerc|80460|ault;;;
59264001;;a_completer;;ECHANGEUR 24;59264;Onnaing;50.387313;3.598736;;;enseigne inconnue | aucune station OpenStreetMap proche;echangeur 24|59264|onnaing;;;
30750001;;a_completer;;Le Gardiol;30750;Lanuéjols;44.13128;3.38283;;;enseigne inconnue | adresse BAN eloignee des coordonnees | aucune station OpenStreetMap proche;le gardiol|30750|lanuéjols;;;
58140001;;a_completer;;AVENUE DU 8 MAI;58140;Lormes;47.282;3.821;;;enseigne inconnue | correspondance OpenStreetMap ambigue;avenue du 8 mai|58140|lormes;;;
70300004;;a_completer;;27 Rue des Martyrs de la Résistance;70300;Luxeuil-les-Bains;47.821;6.385;;;enseigne inconnue | correspondance OpenStreetMap ambigue;27 rue des martyrs de la résistance|70300|luxeuil-les-bains;;;
93290005;;a_completer;;DEVIATION CD 88 - 1 ROUTE DE ROI;93290;Tremblay-en-France;48.984;2.55;;;enseigne inconnue | adresse BAN eloignee des coordonnees | correspondance OpenStreetMap ambigue;deviation cd 88 - 1 route de roi|93290|tremblay-en-france;;;
22440002;;a_completer;;Rue de Brest;22440;Trémuson;48.52276;-2.85671;;;enseigne inconnue | correspondance OpenStreetMap ambigue;rue de brest|22440|trémuson;;;
13122001;;a_completer;;RES.VAL LOURDES;13122;Ventabren;43.54117;5.27115;;;enseigne inconnue | adresse BAN eloignee des coordonnees | correspondance OpenStreetMap ambigue;res.val lourdes|13122|ventabren;;;
80450001;;a_completer;;Rue Ambroise Croizat;80450;Camon;49.9;2.341;;;enseigne inconnue | correspondance OpenStreetMap ambigue;rue ambroise croizat|80450|camon;;;
95500012;;a_completer;;19 RUE GABRIEL PERI;95500;Gonesse;48.99401;2.42407;;;enseigne inconnue | correspondance OpenStreetMap ambigue;19 rue gabriel peri|95500|gonesse;;;
20140001;;a_completer;;RTE N 196;20140;Petreto-Bicchisano;41.78547;8.97933;;;enseigne inconnue | adresse BAN eloignee des coordonnees | correspondance OpenStreetMap ambigue;rte n 196|20140|petreto-bicchisano;;;
10190001;;a_completer;;AVENUE DE LA REPUBLIQUE;10190;Estissac;48.274;3.804;;;enseigne inconnue | adresse BAN eloignee des coordonnees | correspondance OpenStreetMap ambigue;avenue de la republique|10190|estissac;;;
13130005;;a_completer;;Avenue Henri Wallon;13130;Berre-l'Étang;43.484;5.181;;;enseigne inconnue | adresse BAN eloignee des coordonnees | aucune station OpenStreetMap proche;avenue henri wallon|13130|berre-l'étang;;;
51700006;;a_completer;;Rue Clos de la Noue;51700;Châtillon-sur-Marne;49.08766;3.76238;;;enseigne inconnue | adresse BAN eloignee des coordonnees | correspondance OpenStreetMap ambigue;rue clos de la noue|51700|châtillon-sur-marne;;;
49124001;;a_completer;;360 RUE HAUTE DES BANCHAIS;49124;Angers;47.48298;-0.51446;;;enseigne inconnue | correspondance OpenStreetMap ambigue;360 rue haute des banchais|49124|angers;;;
40110003;;a_completer;;RD38 ZAC DE SEGUES;40110;Ygos-Saint-Saturnin;43.976;-0.737;;;enseigne inconnue | aucune station OpenStreetMap proche;rd38 zac de segues|40110|ygos-saint-saturnin;;;
11700001;;a_completer;;RN113;11700;Capendu;43.18546;2.5573;;;enseigne inconnue | adresse BAN eloignee des coordonnees | correspondance OpenStreetMap ambigue;rn113|11700|capendu;;;
46000006;;a_completer;;Avenue Edouard Herriot;46000;Aujols;44.436;1.552;;;enseigne inconnue | adresse BAN eloignee des coordonnees | aucune station OpenStreetMap proche;avenue edouard herriot|46000|aujols;;;
37270005;;a_completer;;62 CHEMIN DE LA BUSSARDIERE;37270;Véretz;47.3503792;0.8311044;;way/1493330118;;62 chemin de la bussardiere|37270|véretz;;;
33430001;;a_completer;;D3;33430;Bazas;44.433877;-0.218953;;;enseigne inconnue | adresse BAN eloignee des coordonnees | aucune station OpenStreetMap proche;d3|33430|bazas;;;
25430003;;a_completer;Eni;Croix-Denis;25430;Sancey;47.301796;6.569973;;;enseigne inconnue | adresse BAN eloignee des coordonnees | correspondance OpenStreetMap ambigue;croix-denis|25430|sancey;;;
60310001;;a_completer;;Zone Artisanale;60310;Lassigny;49.59;2.854;;;enseigne inconnue | adresse BAN eloignee des coordonnees | aucune station OpenStreetMap proche;zone artisanale|60310|lassigny;;;
13700013;Independent;a_completer;;24 avenue Maréchal JUIN;13700;Marignane;43.419382;5.223334;OpenStreetMap;way/202478850;;24 avenue maréchal juin|13700|marignane;;;
56650001;Independent;a_completer;;RUE EMILE ZOLA;56650;Inzinzac-Lochrist;47.826;-3.252;OpenStreetMap;node/2209939371;;rue emile zola|56650|inzinzac-lochrist;;;
87130001;;a_completer;;LE ROUCHILLOUX;87130;Châteauneuf-la-Forêt;45.70942;1.59823;;;enseigne inconnue | adresse BAN eloignee des coordonnees | aucune station OpenStreetMap proche;le rouchilloux|87130|châteauneuf-la-forêt;;;
56380003;E.Leclerc;a_verifier_absente_osm;E.Leclerc;AVENUE DU GENERAL LECLERC;56380;Guer;47.903712;-2.121803;Adresse officielle;;adresse BAN eloignee des coordonnees | aucune station OpenStreetMap proche;avenue du general leclerc|56380|guer;;;
31600007;;a_completer;;RN 117 - LIEU DIT GUERIN;31600;Muret;43.488452;1.340283;;;enseigne inconnue | adresse BAN eloignee des coordonnees | aucune station OpenStreetMap proche;rn 117 - lieu dit guerin|31600|muret;;;
84500003;Independent;a_completer;;Route de Suze la Rousse;84500;Bollène;44.280839;4.802174;OpenStreetMap;way/73793777;adresse BAN eloignee des coordonnees;route de suze la rousse|84500|bollène;;;
41140004;;a_completer;;12 Rue André Boulle. ZA LES PLANTES;41140;Noyers-sur-Cher;47.283;1.371;;;enseigne inconnue | adresse BAN eloignee des coordonnees | correspondance OpenStreetMap ambigue;12 rue andré boulle. za les plantes|41140|noyers-sur-cher;;;
50160003;;a_completer;;85, route de Saint Lô;50160;Condé-sur-Vire;49.04798;-0.99375;;;enseigne inconnue | adresse BAN eloignee des coordonnees | correspondance OpenStreetMap ambigue;85, route de saint lô|50160|condé-sur-vire;;;
74140006;;a_completer;;LES BLOSSONNIERS ROUTE DES VOIRONS;74140;Veigy-Foncenex;46.270227;6.257007;;;enseigne inconnue | adresse BAN eloignee des coordonnees | correspondance OpenStreetMap ambigue;les blossonniers route des voirons|74140|veigy-foncenex;;;
27170002;;a_completer;;Route de Beaumont;27170;Mesnil-en-Ouche;49.02978;0.74291;;;enseigne inconnue | adresse BAN eloignee des coordonnees | aucune station OpenStreetMap proche;route de beaumont|27170|mesnil-en-ouche;;;
19350002;;a_completer;;LASCHAMPS;19350;Chabrignac;45.316832;1.336977;;;enseigne inconnue | adresse BAN eloignee des coordonnees | correspondance OpenStreetMap ambigue;laschamps|19350|chabrignac;;;
1120008;;a_completer;;AUTOROUTE A42 - AIRE DE LYON MONTUEL;01120;Dagneux;45.847;5.074;;;enseigne inconnue | adresse BAN eloignee des coordonnees | correspondance OpenStreetMap ambigue;autoroute a42 - aire de lyon montuel|01120|dagneux;;;
80260003;;a_completer;;RD 933 Le Champs St Pierre;80260;Flesselles;50.001;2.258;;;enseigne inconnue | adresse BAN eloignee des coordonnees | aucune station OpenStreetMap proche;rd 933 le champs st pierre|80260|flesselles;;;
6200026;;a_completer;;217 PROMENADE DES ANGLAIS;06200;Nice;43.68588;7.23677;;;enseigne inconnue | aucune station OpenStreetMap proche;217 promenade des anglais|06200|nice;;;
13100014;;a_completer;;122 COURS GAMBETTA;13100;Aix-en-Provence;43.520864;5.459002;;;enseigne inconnue | adresse BAN eloignee des coordonnees | correspondance OpenStreetMap ambigue;122 cours gambetta|13100|aix-en-provence;;;
12330004;;a_completer;;Route de Rodez;12330;Saint-Christophe-Vallon;44.469;2.414;;;enseigne inconnue | correspondance OpenStreetMap ambigue;route de rodez|12330|saint-christophe-vallon;;;
36130001;;a_completer;;ZAC DU GRAND DEOLS;36130;Déols;46.819;1.746;;;enseigne inconnue | adresse BAN eloignee des coordonnees | aucune station OpenStreetMap proche;zac du grand deols|36130|déols;;;
20167004;;a_completer;;Route de Sagone;20167;Alata;41.965;8.782;;;enseigne inconnue | adresse BAN eloignee des coordonnees | correspondance OpenStreetMap ambigue;route de sagone|20167|alata;;;
63790001;Garage de l'Avenir;ok_osm;Eni;Route du chambon;63790;Murol;45.576;2.932;OpenStreetMap;node/8071909781;adresse BAN eloignee des coordonnees;route du chambon|63790|murol;;;
49450001;U;a_completer;;ZC LES ALOUETTES;49450;Sèvremoine;47.1141152;-0.9907737;OpenStreetMap;way/209152143;;zc les alouettes|49450|sèvremoine;;;
8350002;;a_completer;;Rue Georges Clemenceau;08350;Donchery;49.698;4.866;;;enseigne inconnue | correspondance OpenStreetMap ambigue;rue georges clemenceau|08350|donchery;;;
43200008;Vitogaz;ok_osm;Vito;95 RUE VIA FLUVIA ZA VERCHERES;43200;Yssingeaux;45.159733;4.139155;OpenStreetMap;node/8075526950;;95 rue via fluvia za vercheres|43200|yssingeaux;;;
77340007;;a_completer;;N104 LA FRANCILIENNE - AIRE PRE DE L'AULNES ET DE LA GDE MAR;77340;Émerainville;48.816;2.623;;;enseigne inconnue | correspondance OpenStreetMap ambigue;n104 la francilienne - aire pre de l'aulnes et de la gde mar|77340|émerainville;;;
32100001;;a_completer;;33 Avenue des Pyrénées;32100;Condom;43.948;0.372;;;enseigne inconnue | adresse BAN eloignee des coordonnees | correspondance OpenStreetMap ambigue;33 avenue des pyrénées|32100|condom;;;
11160002;Independent;a_completer;;ZA les Terres Rouges - avenue du Minervois;11160;Villeneuve-Minervois;43.314;2.47;OpenStreetMap;node/2026821625;;za les terres rouges - avenue du minervois|11160|villeneuve-minervois;;;
20156001;;a_completer;;PORTO POLLO;20156;Serra-di-Ferro;41.70911;8.7926;;;enseigne inconnue | adresse BAN eloignee des coordonnees | aucune station OpenStreetMap proche;porto pollo|20156|serra-di-ferro;;;
13680007;;a_completer;;AUTOROUTE A7 - AIRE DE LANÇON EST;13680;Lançon-Provence;43.598904;5.159049;;;enseigne inconnue | adresse BAN eloignee des coordonnees | aucune station OpenStreetMap proche;autoroute a7 - aire de lançon est|13680|lançon-provence;;;
5200004;;a_completer;;359 Route des portes du lac Route Nationale 94;05200;Baratier;44.538;6.497;;;enseigne inconnue | adresse BAN eloignee des coordonnees | aucune station OpenStreetMap proche;359 route des portes du lac route nationale 94|05200|baratier;;;
59240002;;a_completer;;Boulevard de l'Europe;59240;Dunkerque;51.05;2.414;;;enseigne inconnue | correspondance OpenStreetMap ambigue;boulevard de l'europe|59240|dunkerque;;;
11620001;;a_completer;;Lieu dit La Viala;11620;Villemoustaussou;43.252;2.361;;;enseigne inconnue | adresse BAN eloignee des coordonnees | correspondance OpenStreetMap ambigue;lieu dit la viala|11620|villemoustaussou;;;
23600001;U;a_completer;;avenue de bourbonnais;23600;Boussac;46.35;2.215;OpenStreetMap;way/189690918;correspondance OpenStreetMap ambigue;avenue de bourbonnais|23600|boussac;;;
76850001;;a_completer;;RUE DES FORGES;76850;Bosc-le-Hard;49.631;1.18;;;enseigne inconnue | correspondance OpenStreetMap ambigue;rue des forges|76850|bosc-le-hard;;;
89130001;;a_completer;;Rue de la Chatterie;89130;Dracy;47.762;3.254;;;enseigne inconnue | adresse BAN eloignee des coordonnees | aucune station OpenStreetMap proche;rue de la chatterie|89130|dracy;;;
26300010;;a_completer;;Route du Stade;26300;Chatuzange-le-Goubet;45.0;5.089;;;enseigne inconnue | correspondance OpenStreetMap ambigue;route du stade|26300|chatuzange-le-goubet;;;
47160002;U;a_completer;;13 AVENUE DES LANDES;47160;Damazan;44.28798;0.272237;OpenStreetMap;node/13882728119;;13 avenue des landes|47160|damazan;;;
56120004;U;a_completer;;Espace Commercial Oxygène;56120;Josselin;47.964;-2.545;OpenStreetMap;way/1120167787;adresse BAN eloignee des coordonnees | correspondance OpenStreetMap ambigue;espace commercial oxygène|56120|josselin;;;
42370001;;a_completer;;1500 route de renaison;42370;Saint-Haon-le-Châtel;46.063;3.92;;;enseigne inconnue | adresse BAN eloignee des coordonnees | correspondance OpenStreetMap ambigue;1500 route de renaison|42370|saint-haon-le-châtel;;;
41190002;;a_completer;;Zone Commerciale de la Valstière;41190;Herbault;47.605;1.14;;;enseigne inconnue | adresse BAN eloignee des coordonnees | aucune station OpenStreetMap proche;zone commerciale de la valstière|41190|herbault;;;
30800002;;a_completer;;ROUTE D'ARLES;30800;Saint-Gilles;43.677;4.432;;;enseigne inconnue | adresse BAN eloignee des coordonnees | aucune station OpenStreetMap proche;route d'arles|30800|saint-gilles;;;
74910003;;a_completer;;Route de Genève;74910;Seyssel;45.96065;5.83663;;;enseigne inconnue | correspondance OpenStreetMap ambigue;route de genève|74910|seyssel;;;
34250003;;a_completer;;PONT DES 4 CANAUX - RD 986;34250;Palavas-les-Flots;43.529;3.931;;;enseigne inconnue | adresse BAN eloignee des coordonnees | aucune station OpenStreetMap proche;pont des 4 canaux - rd 986|34250|palavas-les-flots;;;
89200009;;a_completer;;AVENUE DE LA MORLANDE;89200;Avallon;47.491;3.902;;;enseigne inconnue | correspondance OpenStreetMap ambigue;avenue de la morlande|89200|avallon;;;
86190001;;a_completer;;ZAE DE VAUGENDRON;86190;Vouillé;46.642;0.172;;;enseigne inconnue | correspondance OpenStreetMap ambigue;zae de vaugendron|86190|vouillé;;;
50570002;;a_completer;;RUE DE LA CHAPONIERE;50570;Marigny-Le-Lozon;49.09916;-1.24241;;;enseigne inconnue | adresse BAN eloignee des coordonnees | correspondance OpenStreetMap ambigue;rue de la chaponiere|50570|marigny-le-lozon;;;
37190003;;a_completer;;aire des Jardins de Villandry A85;37190;Druye;47.307;0.536;;;enseigne inconnue | adresse BAN eloignee des coordonnees | aucune station OpenStreetMap proche;aire des jardins de villandry a85|37190|druye;;;
2230002;;a_completer;;1000 rue jean jaures;02230;Fresnoy-le-Grand;49.958;3.43;;;enseigne inconnue | adresse BAN eloignee des coordonnees | correspondance OpenStreetMap ambigue;1000 rue jean jaures|02230|fresnoy-le-grand;;;
47450002;;a_completer;;70 route de bibes;47450;Colayrac-Saint-Cirq;44.22087;0.57989;;;enseigne inconnue | adresse BAN eloignee des coordonnees | correspondance OpenStreetMap ambigue;70 route de bibes|47450|colayrac-saint-cirq;;;
60290003;;a_completer;;Route de Mouy;60290;Cauffry;49.322;2.437;;;enseigne inconnue | correspondance OpenStreetMap ambigue;route de mouy|60290|cauffry;;;
13400002;;a_completer;;CAMP MAJOR;13400;Aubagne;43.289;5.541;;;enseigne inconnue | adresse BAN eloignee des coordonnees | correspondance OpenStreetMap ambigue;camp major|13400|aubagne;;;
62850001;;a_completer;;Rue de Courtebourne;62850;Licques;50.79;1.951;;;enseigne inconnue | correspondance OpenStreetMap ambigue;rue de courtebourne|62850|licques;;;
20167010;;a_completer;Avia;N194 Route de Mezzavia;20167;Ajaccio;41.95;8.769;;;enseigne inconnue | adresse BAN eloignee des coordonnees | correspondance OpenStreetMap ambigue;n194 route de mezzavia|20167|ajaccio;;;
7270001;;a_completer;;ZI La Sumène;07270;Lamastre;44.982;4.569;;;enseigne inconnue | adresse BAN eloignee des coordonnees | aucune station OpenStreetMap proche;zi la sumène|07270|lamastre;;;
40260002;;a_completer;;Aire de l'Océan EST;40260;Lesperon;43.937;-1.087;;;enseigne inconnue | adresse BAN eloignee des coordonnees | correspondance OpenStreetMap ambigue;aire de l'océan est|40260|lesperon;;;
69490001;;a_completer;;RN 7;69490;Vindry-sur-Turdine;45.880271;4.472464;;;enseigne inconnue | adresse BAN eloignee des coordonnees | correspondance OpenStreetMap ambigue;rn 7|69490|vindry-sur-turdine;;;
63430006;U;a_completer;;24 Avenue de Lyon;63430;Pont-du-Château;45.7911596;3.2621022;OpenStreetMap;way/107564340;;24 avenue de lyon|63430|pont-du-château;;;
84310002;;a_completer;;28 Chemin du Clos Neuf;84310;Morières-lès-Avignon;43.94345;4.90789;;;enseigne inconnue | aucune station OpenStreetMap proche;28 chemin du clos neuf|84310|morières-lès-avignon;;;
73320002;;a_completer;;Lieu-dit Les Chartreux;73320;Tignes;45.46061;6.90144;;;enseigne inconnue | aucune station OpenStreetMap proche;lieu-dit les chartreux|73320|tignes;;;
76200004;;a_completer;;AVENUE DES CANADIENS;76200;Dieppe;49.90522;1.07678;;;enseigne inconnue | adresse BAN eloignee des coordonnees | correspondance OpenStreetMap ambigue;avenue des canadiens|76200|dieppe;;;
35270001;U;a_completer;;7 AV. DES ERABLES;35270;Combourg;48.412399;-1.746216;OpenStreetMap;way/1305080955;;7 av. des erables|35270|combourg;;;
56700003;;a_completer;;KERNOUS;56700;;47.765;-3.302;;;enseigne inconnue | adresse BAN eloignee des coordonnees | aucune station OpenStreetMap proche;kernous|56700|;;;
34070004;;a_completer;;Avenue Villeneuve d'Angoulême;34070;Montpellier;43.592;3.867;;;enseigne inconnue | correspondance OpenStreetMap ambigue;avenue villeneuve d'angoulême|34070|montpellier;;;
20600003;;a_completer;;RN 193;20600;Furiani;42.658;9.416;;;enseigne inconnue | adresse BAN eloignee des coordonnees | aucune station OpenStreetMap proche;rn 193|20600|furiani;;;
91190009;Esso Express;a_verifier;Esso Express | Esso;2 Route de Gometz;91190;Gif-sur-Yvette;48.688907;2.148499;Adresse officielle;;;2 route de gometz|91190|gif-sur-yvette;;;
47290003;;a_completer;;2 rue du champ de foire;47290;Monbahus;44.548997;0.53641;;;enseigne inconnue | adresse BAN eloignee des coordonnees | correspondance OpenStreetMap ambigue;2 rue du champ de foire|47290|monbahus;;;
29100004;;a_completer;;zone du DREVERS;29100;Douarnenez;48.082;-4.317;;;enseigne inconnue | adresse BAN eloignee des coordonnees | aucune station OpenStreetMap proche;zone du drevers|29100|douarnenez;;;
56700006;;a_completer;;5 Rue de la Madeleine;56700;Merlevenez;47.736;-3.232;;;enseigne inconnue | correspondance OpenStreetMap ambigue;5 rue de la madeleine|56700|merlevenez;;;
83550004;;a_completer;;Boulevard des Vallons;83550;Vidauban;43.428;6.442;;;enseigne inconnue | adresse BAN eloignee des coordonnees | correspondance OpenStreetMap ambigue;boulevard des vallons|83550|vidauban;;;
13700009;;a_completer;;AUTOROUTE A55 - AIRE GIGNAC SUD LA NERTHE;13180;Le Rove;43.388;5.245;;;enseigne inconnue | adresse BAN eloignee des coordonnees | aucune station OpenStreetMap proche;autoroute a55 - aire gignac sud la nerthe|13180|le rove;;;
82600003;;a_completer;;Lieu-dit Escoula;82600;Verdun-sur-Garonne;43.83852;1.23942;;;enseigne inconnue | adresse BAN eloignee des coordonnees | correspondance OpenStreetMap ambigue;lieu-dit escoula|82600|verdun-sur-garonne;;;
39230001;Maximarché;a_verifier_osm_ambigu;;RUE JEAN MOULIN;39230;Sellières;46.828;5.568;Correction precedente conservee;node/3591073014;correspondance OpenStreetMap ambigue;rue jean moulin|39230|sellières;;;
56230003;;a_completer;;Route de la Gare;56230;Questembert;47.6821;-2.44896;;;enseigne inconnue | aucune station OpenStreetMap proche;route de la gare|56230|questembert;;;
57260003;Independent;a_completer;;18 Avenue Foch;57260;Dieuze;48.812;6.715;OpenStreetMap;node/3284968873;correspondance OpenStreetMap ambigue;18 avenue foch|57260|dieuze;;;
40550001;;a_completer;;Route des Lacs;40550;Saint-Michel-Escalus;43.8867;-1.29501;;;enseigne inconnue | adresse BAN eloignee des coordonnees | aucune station OpenStreetMap proche;route des lacs|40550|saint-michel-escalus;;;
51500003;;a_completer;;2 route de Chalons;51500;Sillery;49.19134;4.14837;;;enseigne inconnue | adresse BAN eloignee des coordonnees | aucune station OpenStreetMap proche;2 route de chalons|51500|sillery;;;
82160002;;a_completer;;Z.A. le Chirou;82160;Caylus;44.2314;1.75828;;;enseigne inconnue | correspondance OpenStreetMap ambigue;z.a. le chirou|82160|caylus;;;
49230002;;a_completer;;place saint maurice;49230;Vallet;47.155;-1.21;;;enseigne inconnue | adresse BAN eloignee des coordonnees | aucune station OpenStreetMap proche;place saint maurice|49230|vallet;;;
29600003;;a_completer;;Clos Saint-Fiacre;29600;Plourin-lès-Morlaix;48.558;-3.824;;;enseigne inconnue | correspondance OpenStreetMap ambigue;clos saint-fiacre|29600|plourin-lès-morlaix;;;
29290003;;a_completer;;rue du Pont de bois;29280;Locmaria-Plouzané;48.37506;-4.64481;;;enseigne inconnue | adresse BAN eloignee des coordonnees | aucune station OpenStreetMap proche;rue du pont de bois|29280|locmaria-plouzané;;;
68500003;U;a_completer;;Rue du 17 Novembre;68500;Guebwiller;47.9159169;7.2065336;OpenStreetMap;way/838954972;;rue du 17 novembre|68500|guebwiller;;;
66420001;;a_completer;;BOULEVARD DU 14 JUILLET;66420;Le Barcarès;42.78737;3.0349;;;enseigne inconnue | correspondance OpenStreetMap ambigue;boulevard du 14 juillet|66420|le barcarès;;;
5240004;TotalEnergies;a_verifier;TotalEnergies | Total;60 rue de la guisane;05240;La Salle-les-Alpes;44.943309;6.568547;Adresse officielle;;;60 rue de la guisane|05240|la salle-les-alpes;;;
20218007;;a_completer;;RT20;20218;Morosaglia;42.435188;9.299765;;;enseigne inconnue | adresse BAN eloignee des coordonnees | aucune station OpenStreetMap proche;rt20|20218|morosaglia;;;
62910001;;a_completer;;RUE BLEUE MAISON;62910;Éperlecques;50.821;2.196;;;enseigne inconnue | adresse BAN eloignee des coordonnees | correspondance OpenStreetMap ambigue;rue bleue maison|62910|éperlecques;;;
51500002;;a_completer;;RN 51 CHAMPFLEURY;51500;Champfleury;49.2;4.016;;;enseigne inconnue | correspondance OpenStreetMap ambigue;rn 51 champfleury|51500|champfleury;;;
4100012;Independent;a_completer;;41 Avenue Saint Lazare;04100;Manosque;43.831048;5.790913;OpenStreetMap;way/89340470;;41 avenue saint lazare|04100|manosque;;;
93130007;;a_completer;;Rue de la Chasse;93130;Noisy-le-Sec;48.88;2.457;;;enseigne inconnue | correspondance OpenStreetMap ambigue;rue de la chasse|93130|noisy-le-sec;;;
20166006;;a_completer;;Les Marines de Porticcio - Commune de Grosseto-Prugna;20166;Grosseto-Prugna;41.8873;8.8077;;;enseigne inconnue | correspondance OpenStreetMap ambigue;les marines de porticcio - commune de grosseto-prugna|20166|grosseto-prugna;;;
45520003;;a_completer;;AUTOROUTE A10 - AIRE D'ORLÉANS-SARAN;45520;Gidy;47.98;1.856;;;enseigne inconnue | adresse BAN eloignee des coordonnees | correspondance OpenStreetMap ambigue;autoroute a10 - aire d'orléans-saran|45520|gidy;;;
28300004;;a_completer;;Rue Gambetta;28300;Mainvilliers;48.454;1.465;;;enseigne inconnue | correspondance OpenStreetMap ambigue;rue gambetta|28300|mainvilliers;;;
47300001;;a_completer;;Route de Bordeaux;47300;Bias;44.404;0.669;;;enseigne inconnue | adresse BAN eloignee des coordonnees | aucune station OpenStreetMap proche;route de bordeaux|47300|bias;;;
15320001;;a_completer;;LE BOURG;15320;Ruynes-en-Margeride;45.001;3.224;;;enseigne inconnue | adresse BAN eloignee des coordonnees | correspondance OpenStreetMap ambigue;le bourg|15320|ruynes-en-margeride;;;
2400007;;a_completer;;ZC LA MOISERIE ROUTE DE SOISSONS;02400;Château-Thierry;49.055316;3.399166;;;enseigne inconnue | adresse BAN eloignee des coordonnees | aucune station OpenStreetMap proche;zc la moiserie route de soissons|02400|château-thierry;;;
17600005;;a_completer;;LE CHAMP DE DEVANT;17600;Corme-Royal;45.746258;-0.812486;;;enseigne inconnue | adresse BAN eloignee des coordonnees | aucune station OpenStreetMap proche;le champ de devant|17600|corme-royal;;;
20620005;;a_completer;;RN 193;20620;Biguglia;42.621;9.437;;;enseigne inconnue | adresse BAN eloignee des coordonnees | correspondance OpenStreetMap ambigue;rn 193|20620|biguglia;;;
38110001;;a_completer;;Avenue de Savoie;38110;Saint-Clair-de-la-Tour;45.573;5.472;;;enseigne inconnue | adresse BAN eloignee des coordonnees | aucune station OpenStreetMap proche;avenue de savoie|38110|saint-clair-de-la-tour;;;
72200001;;a_completer;;ROUTE DES MOLLANS;72200;La Flèche;47.701;-0.094;;;enseigne inconnue | adresse BAN eloignee des coordonnees | correspondance OpenStreetMap ambigue;route des mollans|72200|la flèche;;;
87440001;;a_completer;;Route de Rochechouart;87440;Saint-Mathieu;45.71;0.763;;;enseigne inconnue | adresse BAN eloignee des coordonnees | correspondance OpenStreetMap ambigue;route de rochechouart|87440|saint-mathieu;;;
7000003;Station Service;a_completer;;635 ROUTE D'AUBENAS;07000;Veyras;44.729;4.569;OpenStreetMap;node/25214091;adresse BAN eloignee des coordonnees;635 route d'aubenas|07000|veyras;;;
54540003;Independent;a_completer;E.Leclerc;26 avenue de la Division Leclerc;54540;Badonviller;48.498;6.886;OpenStreetMap;node/12780098920;;26 avenue de la division leclerc|54540|badonviller;;;
91490004;;a_completer;;ZA LE CHENET;91490;Milly-la-Forêt;48.399;2.437;;;enseigne inconnue | adresse BAN eloignee des coordonnees | aucune station OpenStreetMap proche;za le chenet|91490|milly-la-forêt;;;
6500005;;a_completer;;45 AV DE ST ROMAN;06500;Menton;43.805;7.487;;;enseigne inconnue | adresse BAN eloignee des coordonnees | aucune station OpenStreetMap proche;45 av de st roman|06500|menton;;;
77760001;bi1;ok_osm;Eni;Rue de l'Avenir;77760;La Chapelle-la-Reine;48.3229764;2.5783337;OpenStreetMap;node/3878094003;;rue de l'avenir|77760|la chapelle-la-reine;;;
63670002;;a_completer;;LIEUDIT CHATEAUGAY;63670;La Roche-Blanche;45.705;3.13;;;enseigne inconnue | adresse BAN eloignee des coordonnees | aucune station OpenStreetMap proche;lieudit chateaugay|63670|la roche-blanche;;;
19000006;;a_completer;;2 QUAI CONTINSOUZA;19000;Tulle;45.272189;1.775877;;;enseigne inconnue | correspondance OpenStreetMap ambigue;2 quai continsouza|19000|tulle;;;
56220003;;a_completer;;PA de la Chaussée;56220;Malansac;47.678;-2.295;;;enseigne inconnue | adresse BAN eloignee des coordonnees | aucune station OpenStreetMap proche;pa de la chaussée|56220|malansac;;;
88500001;;a_completer;;23 Rue du pré Paradis;88500;Poussay;48.303;6.119;;;enseigne inconnue | adresse BAN eloignee des coordonnees | aucune station OpenStreetMap proche;23 rue du pré paradis|88500|poussay;;;
89200002;;a_completer;;RUE DE LA GOULOTTE;89200;Avallon;47.49;3.9;;;enseigne inconnue | adresse BAN eloignee des coordonnees | correspondance OpenStreetMap ambigue;rue de la goulotte|89200|avallon;;;
92800007;;a_completer;;Quai de Dion-Bouton;92800;Puteaux;48.88;2.245;;;enseigne inconnue | correspondance OpenStreetMap ambigue;quai de dion-bouton|92800|puteaux;;;
40270004;;a_completer;;2 Avenue de Mont de Marsan;40270;Grenade-sur-l'Adour;43.774;-0.432;;;enseigne inconnue | correspondance OpenStreetMap ambigue;2 avenue de mont de marsan|40270|grenade-sur-l'adour;;;
62510003;;a_completer;;Rue bernard CHOCHOY;62510;Arques;50.727;2.3;;;enseigne inconnue | adresse BAN eloignee des coordonnees | correspondance OpenStreetMap ambigue;rue bernard chochoy|62510|arques;;;
14680001;;a_completer;;VARENDES;14680;Bretteville-sur-Laize;49.045;-0.324;;;enseigne inconnue | adresse BAN eloignee des coordonnees | aucune station OpenStreetMap proche;varendes|14680|bretteville-sur-laize;;;
31350002;;a_completer;;ROUTE DE ST GAUDENS;31350;Boulogne-sur-Gesse;43.28438;0.66086;;;enseigne inconnue | adresse BAN eloignee des coordonnees | correspondance OpenStreetMap ambigue;route de st gaudens|31350|boulogne-sur-gesse;;;
50600003;;a_completer;;LA VERTE CAMPAGNE;50600;Saint-Hilaire-du-Harcouët;48.576;-1.088;;;enseigne inconnue | adresse BAN eloignee des coordonnees | correspondance OpenStreetMap ambigue;la verte campagne|50600|saint-hilaire-du-harcouët;;;
77500008;Esso;a_verifier;Esso;20 Avenue de Claye;77500;Chelles;48.890588;2.608426;Adresse officielle;;;20 avenue de claye|77500|chelles;;;
83170009;;a_completer;;Quartier Le LAOU;83170;Tourves;43.409;5.922;;;enseigne inconnue | adresse BAN eloignee des coordonnees | aucune station OpenStreetMap proche;quartier le laou|83170|tourves;;;
77510001;;a_completer;;ZAC PRE ANCEL;77510;Rebais;48.84615;3.23114;;;enseigne inconnue | adresse BAN eloignee des coordonnees | aucune station OpenStreetMap proche;zac pre ancel|77510|rebais;;;
6250012;;a_completer;;AUTOROUTE A8 - AIRE DES BREGUIÈRES;06250;Mougins;43.593875;7.035736;;;enseigne inconnue | adresse BAN eloignee des coordonnees | correspondance OpenStreetMap ambigue;autoroute a8 - aire des breguières|06250|mougins;;;
56500004;;a_completer;;Rue du Chanoine Martin;56500;Pleugriffet;47.99;-2.708;;;enseigne inconnue | adresse BAN eloignee des coordonnees | aucune station OpenStreetMap proche;rue du chanoine martin|56500|pleugriffet;;;
89200008;;a_completer;;6 Rue de Lyon;89200;Avallon;47.491;3.912;;;enseigne inconnue | aucune station OpenStreetMap proche;6 rue de lyon|89200|avallon;;;
68550001;;a_completer;;1 Rue de l'Industrie;68550;Saint-Amarin;47.874;7.022;;;enseigne inconnue | correspondance OpenStreetMap ambigue;1 rue de l'industrie|68550|saint-amarin;;;
76740002;;a_completer;;HAMEAU DU BUQUET;76740;La Gaillarde;49.833;0.906;;;enseigne inconnue | adresse BAN eloignee des coordonnees | correspondance OpenStreetMap ambigue;hameau du buquet|76740|la gaillarde;;;
68870001;Essence Hypermarché;ok_osm;Carrefour;Carrefour de l'Europe;68870;Bartenheim;47.636;7.493;OpenStreetMap;way/89272310;adresse BAN eloignee des coordonnees;carrefour de l'europe|68870|bartenheim;;;
27320001;;a_completer;;LA POTINIERE;27320;Nonancourt;48.77;1.202;;;enseigne inconnue | adresse BAN eloignee des coordonnees | correspondance OpenStreetMap ambigue;la potiniere|27320|nonancourt;;;
82110002;;a_completer;;TRAVERS DE CAZES;82110;Cazes-Mondenard;44.235;1.207;;;enseigne inconnue | adresse BAN eloignee des coordonnees | correspondance OpenStreetMap ambigue;travers de cazes|82110|cazes-mondenard;;;
66420002;;a_completer;;Boulevard du 14 Juillet;66420;Le Barcarès;42.787;3.035;;;enseigne inconnue | correspondance OpenStreetMap ambigue;boulevard du 14 juillet|66420|le barcarès;;;
21190007;;a_completer;;AUTOROUTE A6 - AIRE DE BEAUNE MERCEUIL;21190;Merceuil;46.95888;4.83532;;;enseigne inconnue | adresse BAN eloignee des coordonnees | correspondance OpenStreetMap ambigue;autoroute a6 - aire de beaune merceuil|21190|merceuil;;;
40220002;;a_completer;;Avenue du 1er Mai;40220;Tarnos;43.549;-1.486;;;enseigne inconnue | adresse BAN eloignee des coordonnees | aucune station OpenStreetMap proche;avenue du 1er mai|40220|tarnos;;;
29950001;;a_completer;;Domaine de Penfoul Bihan;29950;Bénodet;47.882;-4.112;;;enseigne inconnue | adresse BAN eloignee des coordonnees | correspondance OpenStreetMap ambigue;domaine de penfoul bihan|29950|bénodet;;;
6210009;;a_completer;;ROUTE NATIONALE 7;06210;Mandelieu-la-Napoule;43.522;6.899;;;enseigne inconnue | adresse BAN eloignee des coordonnees | aucune station OpenStreetMap proche;route nationale 7|06210|mandelieu-la-napoule;;;
95400008;Filot Auto;a_verifier_osm_ambigu;;AVENUE DES ERABLES;95400;Villiers-le-Bel;49.00053;2.39389;Correction precedente conservee;node/2613906872;correspondance OpenStreetMap ambigue;avenue des erables|95400|villiers-le-bel;;;
59610002;;a_completer;;rue theophile legrand;59610;Wignehies;50.024;4.028;;;enseigne inconnue | adresse BAN eloignee des coordonnees | correspondance OpenStreetMap ambigue;rue theophile legrand|59610|wignehies;;;
6430001;;a_completer;;Quartier celestrera;06430;Tende;44.087683;7.593722;;;enseigne inconnue | adresse BAN eloignee des coordonnees | aucune station OpenStreetMap proche;quartier celestrera|06430|tende;;;
33620003;;a_completer;;1, Garosse Nord;33620;Laruscade;45.107;-0.341;;;enseigne inconnue | adresse BAN eloignee des coordonnees | correspondance OpenStreetMap ambigue;1, garosse nord|33620|laruscade;;;
91814001;;a_completer;;ROUTE DE VILLOISON;91100;Villabé;48.584;2.444;;;enseigne inconnue | adresse BAN eloignee des coordonnees | correspondance OpenStreetMap ambigue;route de villoison|91100|villabé;;;
30190003;;a_completer;;Avenue Charles de Gaulle;30190;La Calmette;43.92419;4.2639;;;enseigne inconnue | adresse BAN eloignee des coordonnees | correspondance OpenStreetMap ambigue;avenue charles de gaulle|30190|la calmette;;;
17130001;;a_completer;;Avenue de la République;17130;Montendre;45.286079;-0.392973;;;enseigne inconnue | adresse BAN eloignee des coordonnees | correspondance OpenStreetMap ambigue;avenue de la république|17130|montendre;;;
44320007;;a_completer;;CC L'Iliade;44320;Saint-Père-en-Retz;47.206337;-2.044081;;;enseigne inconnue | adresse BAN eloignee des coordonnees | correspondance OpenStreetMap ambigue;cc l'iliade|44320|saint-père-en-retz;;;
21210001;;a_completer;;RUE GRILLOT;21210;Saulieu;47.282;4.237;;;enseigne inconnue | adresse BAN eloignee des coordonnees | correspondance OpenStreetMap ambigue;rue grillot|21210|saulieu;;;
78121001;;a_completer;;27 Route Départementale 307;78121;Crespières;48.886552;1.916159;;;enseigne inconnue | adresse BAN eloignee des coordonnees | correspondance OpenStreetMap ambigue;27 route départementale 307|78121|crespières;;;
77220004;;a_completer;;Boulevard Victor Hugo;77220;Gretz-Armainvilliers;48.73913;2.72084;;;enseigne inconnue | correspondance OpenStreetMap ambigue;boulevard victor hugo|77220|gretz-armainvilliers;;;
37390003;;a_completer;;ZAC DE LA GRANDE PIECE;37390;Chanceaux-sur-Choisille;47.47;0.702;;;enseigne inconnue | correspondance OpenStreetMap ambigue;zac de la grande piece|37390|chanceaux-sur-choisille;;;
16250001;;a_completer;;AUX NAULETS PEREUIL;16250;Pérignac;45.472713;0.048103;;;enseigne inconnue | adresse BAN eloignee des coordonnees | aucune station OpenStreetMap proche;aux naulets pereuil|16250|pérignac;;;
22200006;;a_completer;;ROUTE NATIONALE 12 - ROUTE DE SAINT BRIEUC;22970;Ploumagoar;48.557;-3.129;;;enseigne inconnue | adresse BAN eloignee des coordonnees | correspondance OpenStreetMap ambigue;route nationale 12 - route de saint brieuc|22970|ploumagoar;;;
33700002;;a_completer;Eni;AVENUE MARECHAL GALLIENI;33700;Mérignac;44.834;-0.617;;;enseigne inconnue | correspondance OpenStreetMap ambigue;avenue marechal gallieni|33700|mérignac;;;
83600029;;a_completer;;AVENUE ANDRE LEOTARD;83600;Fréjus;43.436748;6.757294;;;enseigne inconnue | adresse BAN eloignee des coordonnees | correspondance OpenStreetMap ambigue;avenue andre leotard|83600|fréjus;;;
45220001;;a_completer;;Allée de la Gravière;45220;Château-Renard;47.932194;2.923775;;;enseigne inconnue | adresse BAN eloignee des coordonnees | correspondance OpenStreetMap ambigue;allée de la gravière|45220|château-renard;;;
39400003;;a_completer;;10 Rue de l'Europe;39400;Morbier;46.549;6.016;;;enseigne inconnue | adresse BAN eloignee des coordonnees | correspondance OpenStreetMap ambigue;10 rue de l'europe|39400|morbier;;;
2130001;;a_completer;;Rue du Stade;02130;Fère-en-Tardenois;49.201;3.511;;;enseigne inconnue | adresse BAN eloignee des coordonnees | correspondance OpenStreetMap ambigue;rue du stade|02130|fère-en-tardenois;;;
18100017;U;a_completer;;18 avenue du 19 mars 1962;18100;Vierzon;47.239786;2.092047;OpenStreetMap;node/7414465297;;18 avenue du 19 mars 1962|18100|vierzon;;;
6156001;;a_completer;;Z.I. Les Tourrades;06150;Cannes;43.571;6.959;;;enseigne inconnue | adresse BAN eloignee des coordonnees | aucune station OpenStreetMap proche;z.i. les tourrades|06150|cannes;;;
36150004;;a_completer;;A20 AIRE DES CHAMPS D' AMOUR;36150;Reboursin;47.102;1.797;;;enseigne inconnue | adresse BAN eloignee des coordonnees | aucune station OpenStreetMap proche;a20 aire des champs d' amour|36150|reboursin;;;
60530003;;a_completer;;ZI route de Crouy;60530;Neuilly-en-Thelle;49.229;2.282;;;enseigne inconnue | adresse BAN eloignee des coordonnees | aucune station OpenStreetMap proche;zi route de crouy|60530|neuilly-en-thelle;;;
20166004;;a_completer;Eni;CTRE COMMERCIAL BENISTA;20166;Grosseto-Prugna;41.887;8.808;;;enseigne inconnue | adresse BAN eloignee des coordonnees | correspondance OpenStreetMap ambigue;ctre commercial benista|20166|grosseto-prugna;;;
91100021;Euro Pétrol;ok_osm;Esso;18 Boulevard Jean jaures;91100;Corbeil-Essonnes;48.606;2.466;OpenStreetMap;way/63604530;;18 boulevard jean jaures|91100|corbeil-essonnes;;;
59780003;;a_completer;;RD 93 GRANDE RUE;59780;Camphin-en-Pévèle;50.594775;3.257818;;;enseigne inconnue | adresse BAN eloignee des coordonnees | aucune station OpenStreetMap proche;rd 93 grande rue|59780|camphin-en-pévèle;;;
86130010;;a_completer;;AUTOROUTE A10;86130;Jaunay-Marigny;46.691;0.355;;;enseigne inconnue | adresse BAN eloignee des coordonnees | aucune station OpenStreetMap proche;autoroute a10|86130|jaunay-marigny;;;
62134001;;a_completer;;73 RUE D.HESDIN;62134;Anvin;50.447;2.251;;;enseigne inconnue | adresse BAN eloignee des coordonnees | correspondance OpenStreetMap ambigue;73 rue d.hesdin|62134|anvin;;;
59114003;;a_completer;;144 Route d'Eecke;59114;Steenvoorde;50.8;2.592;;;enseigne inconnue | adresse BAN eloignee des coordonnees | aucune station OpenStreetMap proche;144 route d'eecke|59114|steenvoorde;;;
29420001;;a_completer;;Rue de Bel Air;29420;Plouénan;48.628;-3.988;;;enseigne inconnue | adresse BAN eloignee des coordonnees | correspondance OpenStreetMap ambigue;rue de bel air|29420|plouénan;;;
20145004;;a_completer;;RN T 10;20145;Sari-Solenzara;41.857886;9.364222;;;enseigne inconnue | adresse BAN eloignee des coordonnees | aucune station OpenStreetMap proche;rn t 10|20145|sari-solenzara;;;
14730004;;a_completer;;A13, Aire de Giberville Nord;14730;Giberville;49.168218;-0.281818;;;enseigne inconnue | adresse BAN eloignee des coordonnees | correspondance OpenStreetMap ambigue;a13, aire de giberville nord|14730|giberville;;;
71260004;;a_completer;;143 rue du four a chaux;71260;Lugny;46.472;4.816;;;enseigne inconnue | correspondance OpenStreetMap ambigue;143 rue du four a chaux|71260|lugny;;;
31140008;;a_completer;;Route de Béssières;31140;Castelginest;43.69;1.452;;;enseigne inconnue | correspondance OpenStreetMap ambigue;route de béssières|31140|castelginest;;;
76340005;;a_completer;;RUE DES MARAIS;76340;Blangy-sur-Bresle;49.930638;1.637064;;;enseigne inconnue | adresse BAN eloignee des coordonnees | aucune station OpenStreetMap proche;rue des marais|76340|blangy-sur-bresle;;;
13008001;;a_completer;;365 Avenue de Mazargues;13008;Marseille;43.253;5.397;;;enseigne inconnue | adresse BAN eloignee des coordonnees | aucune station OpenStreetMap proche;365 avenue de mazargues|13008|marseille;;;
74890001;;a_completer;;ROUTE DE LA SCIERIE;74890;Bons-en-Chablais;46.264;6.37;;;enseigne inconnue | adresse BAN eloignee des coordonnees | aucune station OpenStreetMap proche;route de la scierie|74890|bons-en-chablais;;;
57120005;;a_completer;;RUE DU MUGUET;57120;Rombas;49.25;6.096;;;enseigne inconnue | adresse BAN eloignee des coordonnees | aucune station OpenStreetMap proche;rue du muguet|57120|rombas;;;
13200019;;a_completer;;QUARTIER SUD FOURCHON;13200;Arles;43.662;4.633;;;enseigne inconnue | adresse BAN eloignee des coordonnees | correspondance OpenStreetMap ambigue;quartier sud fourchon|13200|arles;;;
19340003;;a_completer;;Viaduc du Chavanon;19340;Messeix;45.624;2.481;;;enseigne inconnue | adresse BAN eloignee des coordonnees | aucune station OpenStreetMap proche;viaduc du chavanon|19340|messeix;;;
37320001;;a_completer;;ZAE Le Grand Berchenay;37320;Esvres;47.291;0.79;;;enseigne inconnue | adresse BAN eloignee des coordonnees | aucune station OpenStreetMap proche;zae le grand berchenay|37320|esvres;;;
44420003;;a_completer;;rue des artisans;44420;Mesquer;47.397;-2.462;;;enseigne inconnue | adresse BAN eloignee des coordonnees | correspondance OpenStreetMap ambigue;rue des artisans|44420|mesquer;;;
19100009;;a_completer;;Impasse du Pilou;19100;Malemort;45.158;1.563;;;enseigne inconnue | correspondance OpenStreetMap ambigue;impasse du pilou|19100|malemort;;;
33470003;;a_completer;;Avenue de Bordeaux;33470;Le Teich;44.622;-1.018;;;enseigne inconnue | correspondance OpenStreetMap ambigue;avenue de bordeaux|33470|le teich;;;
88410001;;a_completer;;rue de La Croix de mission;88410;Monthureux-sur-Saône;48.032;5.978;;;enseigne inconnue | adresse BAN eloignee des coordonnees | correspondance OpenStreetMap ambigue;rue de la croix de mission|88410|monthureux-sur-saône;;;
71380002;;a_completer;;ZAC CHAMP CHASSY RTE DE DOLE;71380;Châtenoy-en-Bresse;46.792;4.912;;;enseigne inconnue | adresse BAN eloignee des coordonnees | aucune station OpenStreetMap proche;zac champ chassy rte de dole|71380|châtenoy-en-bresse;;;
68640001;;a_completer;;4 rue de la république;68640;Illtal;47.556;7.307;;;enseigne inconnue | adresse BAN eloignee des coordonnees | correspondance OpenStreetMap ambigue;4 rue de la république|68640|illtal;;;
51300014;;a_completer;;16 FBG LEON BOURGEOIS;51300;Vitry-le-François;48.72504;4.58843;;;enseigne inconnue | adresse BAN eloignee des coordonnees | correspondance OpenStreetMap ambigue;16 fbg leon bourgeois|51300|vitry-le-françois;;;
26290009;;a_completer;;RN-7;26290;Donzère;44.429;4.712;;;enseigne inconnue | adresse BAN eloignee des coordonnees | correspondance OpenStreetMap ambigue;rn-7|26290|donzère;;;
44430004;;a_completer;;Canton de la Haute Landelle, Routes de Nantes;44430;Le Loroux-Bottereau;47.234;-1.367;;;enseigne inconnue | adresse BAN eloignee des coordonnees | correspondance OpenStreetMap ambigue;canton de la haute landelle, routes de nantes|44430|le loroux-bottereau;;;
66650002;;a_completer;;RN 114 ZAC DE LA RECTORIE;66650;Banyuls-sur-Mer;42.48173;3.12928;;;enseigne inconnue | adresse BAN eloignee des coordonnees | aucune station OpenStreetMap proche;rn 114 zac de la rectorie|66650|banyuls-sur-mer;;;
84140006;;a_completer;;950 CRS CARDINAL BERTRAND DE MON;84140;Avignon;43.931;4.874;;;enseigne inconnue | adresse BAN eloignee des coordonnees | correspondance OpenStreetMap ambigue;950 crs cardinal bertrand de mon|84140|avignon;;;
92120004;;a_completer;;70-74 AV ARISTIDE BRIAND;92120;Le Kremlin-Bicêtre;48.813;2.357;;;enseigne inconnue | adresse BAN eloignee des coordonnees | correspondance OpenStreetMap ambigue;70-74 av aristide briand|92120|le kremlin-bicêtre;;;
71260007;;a_completer;;AUX TEPPES SOLDATS;71260;Péronne;46.440181;4.81076;;;enseigne inconnue | adresse BAN eloignee des coordonnees | aucune station OpenStreetMap proche;aux teppes soldats|71260|péronne;;;
91190001;;a_completer;;CHEVRY BELLEVILLE;91190;Gif-sur-Yvette;48.694;2.121;;;enseigne inconnue | adresse BAN eloignee des coordonnees | correspondance OpenStreetMap ambigue;chevry belleville|91190|gif-sur-yvette;;;
8150002;;a_completer;;103 Avenue Martyrs de la Résistance;08150;Renwez;49.84;4.605;;;enseigne inconnue | adresse BAN eloignee des coordonnees | aucune station OpenStreetMap proche;103 avenue martyrs de la résistance|08150|renwez;;;
56460002;;a_completer;;Zone commerciale du Pont Saint-Pierre;56460;Sérent;47.824;-2.506;;;enseigne inconnue | adresse BAN eloignee des coordonnees | correspondance OpenStreetMap ambigue;zone commerciale du pont saint-pierre|56460|sérent;;;
14140001;;a_completer;;Route de Lisieux;14140;Livarot-Pays-d'Auge;49.008;0.151;;;enseigne inconnue | adresse BAN eloignee des coordonnees | aucune station OpenStreetMap proche;route de lisieux|14140|livarot-pays-d'auge;;;
29419001;;a_completer;;Route du Leck;29800;Landerneau;48.466;-4.256;;;enseigne inconnue | adresse BAN eloignee des coordonnees | correspondance OpenStreetMap ambigue;route du leck|29800|landerneau;;;
14310004;;a_completer;;1 Boulevard du 21e siecle les Sauts casris;14310;Villers-Bocage;49.078;-0.645;;;enseigne inconnue | adresse BAN eloignee des coordonnees | correspondance OpenStreetMap ambigue;1 boulevard du 21e siecle les sauts casris|14310|villers-bocage;;;
30250003;;a_completer;;Lotissement de la Tuilerie;30250;Villevieille;43.791;4.091;;;enseigne inconnue | adresse BAN eloignee des coordonnees | aucune station OpenStreetMap proche;lotissement de la tuilerie|30250|villevieille;;;
54330001;G20;ok_osm;E.Leclerc;6, Avenue Jacques Leclerc;54330;Vézelise;48.487;6.094;OpenStreetMap;node/1711913073;correspondance OpenStreetMap ambigue;6, avenue jacques leclerc|54330|vézelise;;;
55120001;;a_completer;;RN 3;55120;Clermont-en-Argonne;49.10483;5.068454;;;enseigne inconnue | adresse BAN eloignee des coordonnees | correspondance OpenStreetMap ambigue;rn 3|55120|clermont-en-argonne;;;
13170008;Independent;a_completer;;110 Avenue François Mitterand;13170;Les Pennes-Mirabeau;43.381915;5.346606;OpenStreetMap;node/5634792142;;110 avenue françois mitterand|13170|les pennes-mirabeau;;;
58000013;;a_completer;;rue Bernard Palissy;58000;Nevers;46.987;3.17;;;enseigne inconnue | correspondance OpenStreetMap ambigue;rue bernard palissy|58000|nevers;;;
43190002;;a_completer;;za de leygat;43190;Tence;45.101;4.321;;;enseigne inconnue | adresse BAN eloignee des coordonnees | aucune station OpenStreetMap proche;za de leygat|43190|tence;;;
33260001;;a_completer;;RUE LAGRUA;33260;La Teste-de-Buch;44.641;-1.156;;;enseigne inconnue | correspondance OpenStreetMap ambigue;rue lagrua|33260|la teste-de-buch;;;
43100001;;a_completer;;Route de Clermont;43100;Brioude;45.311;3.375;;;enseigne inconnue | adresse BAN eloignee des coordonnees | correspondance OpenStreetMap ambigue;route de clermont|43100|brioude;;;
5120003;;a_completer;;RN 94 Lieu-dit Pont la Lame;05120;Saint-Martin-de-Queyrières;44.853;6.582;;;enseigne inconnue | adresse BAN eloignee des coordonnees | aucune station OpenStreetMap proche;rn 94 lieu-dit pont la lame|05120|saint-martin-de-queyrières;;;
32100003;;a_completer;;lieu dit hontaut;32100;Condom;43.965;0.367;;;enseigne inconnue | adresse BAN eloignee des coordonnees | aucune station OpenStreetMap proche;lieu dit hontaut|32100|condom;;;
34570001;;a_completer;;AVENUE GENERAL GROLLIER;34570;Pignan;43.58474;3.77903;;;enseigne inconnue | adresse BAN eloignee des coordonnees | correspondance OpenStreetMap ambigue;avenue general grollier|34570|pignan;;;
7150003;;a_completer;;route Ruoms;07150;Vallon-Pont-d'Arc;44.407;4.394;;;enseigne inconnue | adresse BAN eloignee des coordonnees | correspondance OpenStreetMap ambigue;route ruoms|07150|vallon-pont-d'arc;;;
64121004;;a_completer;;Rue de Fabrèges ZAC du pont long;64121;Serres-Castet;43.376;-0.38;;;enseigne inconnue | adresse BAN eloignee des coordonnees | aucune station OpenStreetMap proche;rue de fabrèges zac du pont long|64121|serres-castet;;;
26110003;;a_completer;;Route d' Orange;26110;Nyons;44.36;5.134;;;enseigne inconnue | adresse BAN eloignee des coordonnees | correspondance OpenStreetMap ambigue;route d' orange|26110|nyons;;;
30160001;;a_completer;;Rue du Docteur Paul Vermale;30160;Bessèges;44.29233;4.0934;;;enseigne inconnue | adresse BAN eloignee des coordonnees | aucune station OpenStreetMap proche;rue du docteur paul vermale|30160|bessèges;;;
65300002;;a_completer;;CENTRE COMMERCIAL LA RAMONDIA;65300;Lannemezan;43.098;0.399;;;enseigne inconnue | adresse BAN eloignee des coordonnees | aucune station OpenStreetMap proche;centre commercial la ramondia|65300|lannemezan;;;
33910001;;a_completer;Eni;32 Route de Lussac;33910;Saint-Denis-de-Pile;44.99257;-0.20126;;;enseigne inconnue | aucune station OpenStreetMap proche;32 route de lussac|33910|saint-denis-de-pile;;;
25500005;;a_completer;;ROUTE DU PRE DES COMBES;25500;Morteau;47.056;6.617;;;enseigne inconnue | adresse BAN eloignee des coordonnees | correspondance OpenStreetMap ambigue;route du pre des combes|25500|morteau;;;
93320002;;a_completer;;262 AVENUE ARISTIDE BRIAND;93320;Les Pavillons-sous-Bois;48.91;2.51;;;enseigne inconnue | adresse BAN eloignee des coordonnees | correspondance OpenStreetMap ambigue;262 avenue aristide briand|93320|les pavillons-sous-bois;;;
91260001;;a_completer;;8 Rue de la Longueraie;91270;Montgeron;48.72;2.442;;;enseigne inconnue | correspondance OpenStreetMap ambigue;8 rue de la longueraie|91270|montgeron;;;
47220002;;a_completer;;Lieu-dit La Garenne;47220;Fals;44.11451;0.70472;;;enseigne inconnue | adresse BAN eloignee des coordonnees | correspondance OpenStreetMap ambigue;lieu-dit la garenne|47220|fals;;;
40320002;;a_completer;;Lieudit Lamarque - Route d'Hagetmau;40320;Samadet;43.641402;-0.512068;;;enseigne inconnue | adresse BAN eloignee des coordonnees | aucune station OpenStreetMap proche;lieudit lamarque - route d'hagetmau|40320|samadet;;;
34810001;;a_completer;;2 CHEMIN DU PORTOU;34810;Pomérols;43.391;3.489;;;enseigne inconnue | adresse BAN eloignee des coordonnees | correspondance OpenStreetMap ambigue;2 chemin du portou|34810|pomérols;;;
45680003;;a_completer;;RUE DE CHATEAU LANDON;45680;Dordives;48.144;2.772;;;enseigne inconnue | adresse BAN eloignee des coordonnees | aucune station OpenStreetMap proche;rue de chateau landon|45680|dordives;;;
40600004;;a_completer;;Route de Parentis;40600;Biscarrosse;44.3831;-1.14726;;;enseigne inconnue | adresse BAN eloignee des coordonnees | aucune station OpenStreetMap proche;route de parentis|40600|biscarrosse;;;
15700005;U;a_completer;;RUE DU BOURNAT;15700;Pleaux;45.133465;2.222644;OpenStreetMap;node/1505260332;;rue du bournat|15700|pleaux;;;
8110002;;a_completer;;ZAC DE Wé - 2 avenue de l'Europe;08110;Carignan;49.637;5.162;;;enseigne inconnue | adresse BAN eloignee des coordonnees | aucune station OpenStreetMap proche;zac de wé - 2 avenue de l'europe|08110|carignan;;;
77820003;;a_completer;;5 rue des Grands Champs;77820;Le Châtelet-en-Brie;48.492;2.796;;;enseigne inconnue | adresse BAN eloignee des coordonnees | aucune station OpenStreetMap proche;5 rue des grands champs|77820|le châtelet-en-brie;;;
46130001;;a_completer;;AVENUE DE LA REPUBLIQUE;46130;Prudhomat;44.909;1.821;;;enseigne inconnue | adresse BAN eloignee des coordonnees | aucune station OpenStreetMap proche;avenue de la republique|46130|prudhomat;;;
24120010;U;a_completer;;14 avenue victor hugo;24120;Terrasson-Lavilledieu;45.1309027;1.3011241;OpenStreetMap;node/13949539917;;14 avenue victor hugo|24120|terrasson-lavilledieu;;;
29150004;;a_completer;;Grand Rue;29150;Châteaulin;48.196;-4.091;;;enseigne inconnue | correspondance OpenStreetMap ambigue;grand rue|29150|châteaulin;;;
77124001;;a_completer;;ZAC DES VIGNES;77124;Crégy-lès-Meaux;48.97462;2.87015;;;enseigne inconnue | adresse BAN eloignee des coordonnees | correspondance OpenStreetMap ambigue;zac des vignes|77124|crégy-lès-meaux;;;
89560001;;a_completer;;ROUTE NATIONALE 151;89560;Courson-les-Carrières;47.616;3.497;;;enseigne inconnue | adresse BAN eloignee des coordonnees | correspondance OpenStreetMap ambigue;route nationale 151|89560|courson-les-carrières;;;
22580001;;a_completer;;Le Chene Vert;22580;Plouha;48.691;-2.933;;;enseigne inconnue | adresse BAN eloignee des coordonnees | correspondance OpenStreetMap ambigue;le chene vert|22580|plouha;;;
19130002;;a_completer;;AVENUE RAYMOND POINCARE;19130;Objat;45.259;1.413;;;enseigne inconnue | correspondance OpenStreetMap ambigue;avenue raymond poincare|19130|objat;;;
38790003;Carrefour;a_verifier;Carrefour;2 chemin de grange neuve;38790;Diémoz;45.602224;5.091188;Adresse officielle;;;2 chemin de grange neuve|38790|diémoz;;;
1400001;;a_completer;;AVENUE MARECHAL FOCH;01400;Châtillon-sur-Chalaronne;46.119;4.961;;;enseigne inconnue | adresse BAN eloignee des coordonnees | correspondance OpenStreetMap ambigue;avenue marechal foch|01400|châtillon-sur-chalaronne;;;
29170005;;a_completer;;LIEU DIT MANER KER ELO;29170;Fouesnant;47.895;-4.017;;;enseigne inconnue | adresse BAN eloignee des coordonnees | correspondance OpenStreetMap ambigue;lieu dit maner ker elo|29170|fouesnant;;;
71110001;;a_completer;;ZONE ARTISANALE;71110;Marcigny;46.278;4.031;;;enseigne inconnue | adresse BAN eloignee des coordonnees | correspondance OpenStreetMap ambigue;zone artisanale|71110|marcigny;;;
63350003;Independent;a_completer;;Rond Point Sud-Route de Clermont Ferrand;63350;Maringues;45.912;3.334;OpenStreetMap;node/417809627;adresse BAN eloignee des coordonnees;rond point sud-route de clermont ferrand|63350|maringues;;;
80590002;;a_completer;;2 et 4 rue du Viaduc;80290;Gauville;49.781;1.792;;;enseigne inconnue | adresse BAN eloignee des coordonnees | aucune station OpenStreetMap proche;2 et 4 rue du viaduc|80290|gauville;;;
16200003;;a_completer;;Avenue de l'Europe;16200;Jarnac;45.686;-0.165;;;enseigne inconnue | correspondance OpenStreetMap ambigue;avenue de l'europe|16200|jarnac;;;
52300002;;a_completer;;Avenue de Lorraine;52300;Joinville;48.445;5.15;;;enseigne inconnue | correspondance OpenStreetMap ambigue;avenue de lorraine|52300|joinville;;;
56240003;;a_completer;;Creis Er Prat;56240;Plouay;47.913841;-3.333381;;;enseigne inconnue | adresse BAN eloignee des coordonnees | correspondance OpenStreetMap ambigue;creis er prat|56240|plouay;;;
17440003;;a_completer;;Rue Nicolas Gargot;17440;Aytré;46.1386;-1.13925;;;enseigne inconnue | correspondance OpenStreetMap ambigue;rue nicolas gargot|17440|aytré;;;
57260001;Independent;a_completer;;105 Impasse Jean Laurain;57260;Dieuze;48.811;6.714;OpenStreetMap;node/3284968873;correspondance OpenStreetMap ambigue;105 impasse jean laurain|57260|dieuze;;;
59520001;;a_completer;;Rue Georges Maertens;59520;Saint-André-lez-Lille;50.6633;3.04615;;;enseigne inconnue | adresse BAN eloignee des coordonnees | correspondance OpenStreetMap ambigue;rue georges maertens|59520|saint-andré-lez-lille;;;
49400004;;a_completer;;ZI EcoparcSaint Lambert des Levées;49400;Saumur;47.277;-0.075;;;enseigne inconnue | adresse BAN eloignee des coordonnees | aucune station OpenStreetMap proche;zi ecoparcsaint lambert des levées|49400|saumur;;;
47500010;U;a_completer;;372 route de périgueux;47500;Fumel;44.492795;0.949165;OpenStreetMap;node/13957850607;;372 route de périgueux|47500|fumel;;;
26200001;;a_completer;;Route de Dieulefit;26200;Montélimar;44.550294;4.775078;;;enseigne inconnue | adresse BAN eloignee des coordonnees | correspondance OpenStreetMap ambigue;route de dieulefit|26200|montélimar;;;
34440001;;a_completer;;RN113-9 Lieu dit La Grillade;34440;Colombiers;43.312;3.141;;;enseigne inconnue | aucune station OpenStreetMap proche;rn113-9 lieu dit la grillade|34440|colombiers;;;
76750001;;a_completer;;Route de la Gare;76750;Buchy;49.598;1.342;;;enseigne inconnue | adresse BAN eloignee des coordonnees | aucune station OpenStreetMap proche;route de la gare|76750|buchy;;;
74360002;;a_completer;;94 Chemin des Vorges;74360;La Chapelle-d'Abondance;46.28;6.819;;;enseigne inconnue | adresse BAN eloignee des coordonnees | correspondance OpenStreetMap ambigue;94 chemin des vorges|74360|la chapelle-d'abondance;;;
40170004;;a_completer;;Route des Lacs;40170;Saint-Julien-en-Born;44.067;-1.228;;;enseigne inconnue | correspondance OpenStreetMap ambigue;route des lacs|40170|saint-julien-en-born;;;
59380005;;a_completer;;FAUBOURG DE CASSEL RD 916;59380;Socx;50.96273;2.4329;;;enseigne inconnue | adresse BAN eloignee des coordonnees | aucune station OpenStreetMap proche;faubourg de cassel rd 916|59380|socx;;;
17160002;;a_completer;;RUE MAXIME BOURDEAU;17160;Matha;45.87435;-0.31139;;;enseigne inconnue | correspondance OpenStreetMap ambigue;rue maxime bourdeau|17160|matha;;;
59151003;;a_completer;;15T RTE NATIONALE;59151;Bugnicourt;50.292;3.145;;;enseigne inconnue | adresse BAN eloignee des coordonnees | correspondance OpenStreetMap ambigue;15t rte nationale|59151|bugnicourt;;;
84000021;;a_completer;;AVENUE DE L AMANDIER;84000;Avignon;43.935;4.848;;;enseigne inconnue | aucune station OpenStreetMap proche;avenue de l amandier|84000|avignon;;;
45420002;U;a_completer;;ZI LA CHAMPAGNE;45420;Bonny-sur-Loire;47.57234;2.829798;OpenStreetMap;node/472887422;adresse BAN eloignee des coordonnees;zi la champagne|45420|bonny-sur-loire;;;
24750002;;a_completer;;Route de Limoges;24750;Trélissac;45.2;0.785;;;enseigne inconnue | adresse BAN eloignee des coordonnees | aucune station OpenStreetMap proche;route de limoges|24750|trélissac;;;
30330001;;a_completer;;AVENUE DE LA MAYRE;30200;Bagnols-sur-Cèze;44.157;4.623;;;enseigne inconnue | correspondance OpenStreetMap ambigue;avenue de la mayre|30200|bagnols-sur-cèze;;;
33260011;;a_completer;;Avenue de l'Europe;33260;La Teste-de-Buch;44.618;-1.123;;;enseigne inconnue | adresse BAN eloignee des coordonnees | aucune station OpenStreetMap proche;avenue de l'europe|33260|la teste-de-buch;;;
86220001;;a_completer;;RN10;86220;Dangé-Saint-Romain;46.93511;0.60576;;;enseigne inconnue | adresse BAN eloignee des coordonnees | aucune station OpenStreetMap proche;rn10|86220|dangé-saint-romain;;;
52800003;;a_completer;;Grande rue;52800;Foulain;48.040018;5.210159;;;enseigne inconnue | adresse BAN eloignee des coordonnees | correspondance OpenStreetMap ambigue;grande rue|52800|foulain;;;
3600003;;a_completer;;LA BRANDE MALICORNE;03600;Commentry;46.29151;2.73992;;;enseigne inconnue | adresse BAN eloignee des coordonnees | correspondance OpenStreetMap ambigue;la brande malicorne|03600|commentry;;;
22610001;U;a_completer;;24 Rue de l'Armor;22610;Pleubian;48.844;-3.137;OpenStreetMap;way/249880356;;24 rue de l'armor|22610|pleubian;;;
80260001;;a_completer;;Rue du Château d'Eau;80260;Villers-Bocage;50.001;2.316;;;enseigne inconnue | correspondance OpenStreetMap ambigue;rue du château d'eau|80260|villers-bocage;;;
64120004;;a_completer;;40 Zone d'activité;64120;Saint-Palais;43.327;-1.033;;;enseigne inconnue | adresse BAN eloignee des coordonnees | correspondance OpenStreetMap ambigue;40 zone d'activité|64120|saint-palais;;;
33650003;;a_completer;;1 allée Perrucade;33650;La Brède;44.684;-0.521;;;enseigne inconnue | adresse BAN eloignee des coordonnees | correspondance OpenStreetMap ambigue;1 allée perrucade|33650|la brède;;;
45300006;;a_completer;;ZAC DE MORAILLES;45300;Pithiviers-le-Vieil;48.171;2.236;;;enseigne inconnue | adresse BAN eloignee des coordonnees | aucune station OpenStreetMap proche;zac de morailles|45300|pithiviers-le-vieil;;;
30290002;;a_completer;;chemin des lonnes, route des vignerons;30290;Saint-Victor-la-Coste;44.062;4.639;;;enseigne inconnue | adresse BAN eloignee des coordonnees | aucune station OpenStreetMap proche;chemin des lonnes, route des vignerons|30290|saint-victor-la-coste;;;
44170001;U;a_completer;;15, Boulevard du Petit Versailles;44170;Nozay;47.57;-1.629;OpenStreetMap;node/4867624034;correspondance OpenStreetMap ambigue;15, boulevard du petit versailles|44170|nozay;;;
59320006;;a_completer;;RN 41;59320;Hallennes-lez-Haubourdin;50.6;2.938;;;enseigne inconnue | adresse BAN eloignee des coordonnees | correspondance OpenStreetMap ambigue;rn 41|59320|hallennes-lez-haubourdin;;;
44650001;;a_completer;;Avenue des Visitandines;44650;Legé;46.8886;-1.59155;;;enseigne inconnue | aucune station OpenStreetMap proche;avenue des visitandines|44650|legé;;;
20167012;;a_completer;;RT 20;20167;Sarrola-Carcopino;41.995913;8.827659;;;enseigne inconnue | adresse BAN eloignee des coordonnees | aucune station OpenStreetMap proche;rt 20|20167|sarrola-carcopino;;;
31840001;;a_completer;;Route de Seilh;31840;Aussonne;43.68513;1.32722;;;enseigne inconnue | aucune station OpenStreetMap proche;route de seilh|31840|aussonne;;;
27200001;;a_completer;;Boulevard Édouard Isambard;27200;Vernon;49.094;1.472;;;enseigne inconnue | adresse BAN eloignee des coordonnees | correspondance OpenStreetMap ambigue;boulevard édouard isambard|27200|vernon;;;
60110002;;a_completer;;Cc Les Marquises, Rue Marcel Coquet;60110;Méru;49.223;2.137;;;enseigne inconnue | correspondance OpenStreetMap ambigue;cc les marquises, rue marcel coquet|60110|méru;;;
47120002;;a_completer;;rte Nationale 708;47120;Duras;44.665;0.194;;;enseigne inconnue | adresse BAN eloignee des coordonnees | correspondance OpenStreetMap ambigue;rte nationale 708|47120|duras;;;
53600001;U;a_completer;;ROUTE DE LAVAL;53600;Évron;48.147;-0.413;OpenStreetMap;way/275882533;;route de laval|53600|évron;;;
62217007;;a_completer;;ROUTE DE CAMBRAI;62217;Arras;50.282;2.807;;;enseigne inconnue | adresse BAN eloignee des coordonnees | correspondance OpenStreetMap ambigue;route de cambrai|62217|arras;;;
34290007;;a_completer;;AIRE DE BEZIERS MONTBLANC NORD;34290;Bessan;43.369129;3.391077;;;enseigne inconnue | adresse BAN eloignee des coordonnees | aucune station OpenStreetMap proche;aire de beziers montblanc nord|34290|bessan;;;
83580003;;a_completer;;RN 98;83580;Cogolin;43.263;6.583;;;enseigne inconnue | adresse BAN eloignee des coordonnees | correspondance OpenStreetMap ambigue;rn 98|83580|cogolin;;;
30540001;;a_completer;;37 Rue de l'Aubepin;30540;Milhaud;43.786;4.304;;;enseigne inconnue | adresse BAN eloignee des coordonnees | correspondance OpenStreetMap ambigue;37 rue de l'aubepin|30540|milhaud;;;
16800001;;a_completer;;ave du general de gaulle;16800;Soyaux;45.639;0.219;;;enseigne inconnue | adresse BAN eloignee des coordonnees | aucune station OpenStreetMap proche;ave du general de gaulle|16800|soyaux;;;
13600015;;a_completer;;RD 559 AVENUE PAUL ROVARCH;13600;La Ciotat;43.18899;5.63252;;;enseigne inconnue | adresse BAN eloignee des coordonnees | correspondance OpenStreetMap ambigue;rd 559 avenue paul rovarch|13600|la ciotat;;;
62300012;;a_completer;;118 RUE RENE LANOY;62300;Lens;50.435;2.841;;;enseigne inconnue | adresse BAN eloignee des coordonnees | correspondance OpenStreetMap ambigue;118 rue rene lanoy|62300|lens;;;
22200004;;a_completer;;32 avenue du Goëlo;22200;Guingamp;48.562;-3.153;;;enseigne inconnue | adresse BAN eloignee des coordonnees | aucune station OpenStreetMap proche;32 avenue du goëlo|22200|guingamp;;;
32110001;;a_completer;;AVENUE DE PERIE;32110;Nogaro;43.759;-0.033;;;enseigne inconnue | adresse BAN eloignee des coordonnees | correspondance OpenStreetMap ambigue;avenue de perie|32110|nogaro;;;
94440001;;a_completer;;Rue d'Yerres;94440;Villecresnes;48.721;2.525;;;enseigne inconnue | aucune station OpenStreetMap proche;rue d'yerres|94440|villecresnes;;;
49360003;;a_completer;;boulevard Edouard Colbert;49360;Maulévrier;47.01;-0.756;;;enseigne inconnue | correspondance OpenStreetMap ambigue;boulevard edouard colbert|49360|maulévrier;;;
1170002;;a_completer;;Lieu-Dit les Vertes Campagnes;01170;Gex;46.322;6.053;;;enseigne inconnue | adresse BAN eloignee des coordonnees | correspondance OpenStreetMap ambigue;lieu-dit les vertes campagnes|01170|gex;;;
56620001;;a_completer;;route de Lorient;56620;Pont-Scorff;47.832;-3.401;;;enseigne inconnue | correspondance OpenStreetMap ambigue;route de lorient|56620|pont-scorff;;;
31220001;;a_completer;;Avenue des Pyrénées;31220;Martres-Tolosane;43.19845;1.00901;;;enseigne inconnue | adresse BAN eloignee des coordonnees | correspondance OpenStreetMap ambigue;avenue des pyrénées|31220|martres-tolosane;;;
1000016;;a_completer;;1 bvd John Kennedy;01000;Bourg-en-Bresse;46.205161;5.225025;;;enseigne inconnue | adresse BAN eloignee des coordonnees | aucune station OpenStreetMap proche;1 bvd john kennedy|01000|bourg-en-bresse;;;
29650001;;a_completer;;Ar Roudour;29650;Guerlesquin;48.514;-3.588;;;enseigne inconnue | correspondance OpenStreetMap ambigue;ar roudour|29650|guerlesquin;;;
35550004;U;a_completer;Eni;47 rue de l'avenir;35550;Pipriac;47.8103187;-1.9384277;OpenStreetMap;node/297514433;;47 rue de l'avenir|35550|pipriac;;;
64150003;;a_completer;;RD 33;64150;Pardies;43.367;-0.581;;;enseigne inconnue | adresse BAN eloignee des coordonnees | correspondance OpenStreetMap ambigue;rd 33|64150|pardies;;;
44410007;;a_completer;;4 RUE DES LEVEES MIRAUD;44410;La Chapelle-des-Marais;47.448;-2.241;;;enseigne inconnue | adresse BAN eloignee des coordonnees | aucune station OpenStreetMap proche;4 rue des levees miraud|44410|la chapelle-des-marais;;;
17620002;;a_completer;;Rue de la Pouline;17620;Échillais;45.90695;-0.96161;;;enseigne inconnue | correspondance OpenStreetMap ambigue;rue de la pouline|17620|échillais;;;
54340002;;a_completer;;ZA TURLOMONT;54340;Pompey;48.768;6.124;;;enseigne inconnue | adresse BAN eloignee des coordonnees | aucune station OpenStreetMap proche;za turlomont|54340|pompey;;;
82600001;U;a_completer;Eni;195, Route de Mas Grenier;82600;Verdun-sur-Garonne;43.854;1.228;OpenStreetMap;way/186325372;;195, route de mas grenier|82600|verdun-sur-garonne;;;
14400010;;a_completer;;ROUTE NATIONALE 13;14400;Vaucelles;49.285;-0.736;;;enseigne inconnue | adresse BAN eloignee des coordonnees | aucune station OpenStreetMap proche;route nationale 13|14400|vaucelles;;;
3400001;;a_completer;;28, route de Lyon;03400;Moulins;46.558;3.335;;;enseigne inconnue | adresse BAN eloignee des coordonnees | correspondance OpenStreetMap ambigue;28, route de lyon|03400|moulins;;;
22203001;;a_completer;;Route de Corlay;22200;Ploumagoar;48.553;-3.149;;;enseigne inconnue | correspondance OpenStreetMap ambigue;route de corlay|22200|ploumagoar;;;
45110001;;a_completer;;Avenue du Gâtinais;45110;Châteauneuf-sur-Loire;47.876;2.23;;;enseigne inconnue | adresse BAN eloignee des coordonnees | correspondance OpenStreetMap ambigue;avenue du gâtinais|45110|châteauneuf-sur-loire;;;
57130004;;a_completer;;41 ROUTE DE METZ;57130;Jouy-aux-Arches;49.06577;6.080293;;;;41 route de metz|57130|jouy-aux-arches;;;
37400006;;a_completer;Eni;1786 Boulevard saint denis hors;37400;Amboise;47.393;0.982;;;enseigne inconnue | adresse BAN eloignee des coordonnees | aucune station OpenStreetMap proche;1786 boulevard saint denis hors|37400|amboise;;;
49124003;;a_completer;;9 rue de Verdun;49124;Saint-Barthélemy-d'Anjou;47.467507;-0.494517;;;;9 rue de verdun|49124|saint-barthélemy-d'anjou;;;
14290001;;a_completer;;RTE DE BERNAY;14290;Orbec;49.024;0.413;;;enseigne inconnue | correspondance OpenStreetMap ambigue;rte de bernay|14290|orbec;;;
43120001;;a_completer;;rue jean martouret;43120;Monistrol-sur-Loire;45.290704;4.169609;;;enseigne inconnue | correspondance OpenStreetMap ambigue;rue jean martouret|43120|monistrol-sur-loire;;;
62300018;;a_completer;;53 ROUTE D'ARRAS;62300;Lens;50.425389;2.824075;;;enseigne inconnue | adresse BAN eloignee des coordonnees | correspondance OpenStreetMap ambigue;53 route d'arras|62300|lens;;;
31850003;;a_completer;;CHEMIN DE SAINT JEAN;31850;Montrabé;43.65;1.532;;;enseigne inconnue | correspondance OpenStreetMap ambigue;chemin de saint jean|31850|montrabé;;;
9100004;;a_completer;;Avenue des Pyrénées;09100;Saint-Jean-du-Falga;43.084;1.63;;;enseigne inconnue | adresse BAN eloignee des coordonnees | aucune station OpenStreetMap proche;avenue des pyrénées|09100|saint-jean-du-falga;;;
14500005;;a_completer;;Route de conde sur Noireau;14500;Vire Normandie;48.842;-0.886;;;enseigne inconnue | adresse BAN eloignee des coordonnees | correspondance OpenStreetMap ambigue;route de conde sur noireau|14500|vire normandie;;;
70400001;;a_completer;;42 AV LEON JOUHAUX;70400;Saulnot;47.559;6.625;;;enseigne inconnue | adresse BAN eloignee des coordonnees | aucune station OpenStreetMap proche;42 av leon jouhaux|70400|saulnot;;;
45650001;;a_completer;;Route de Saint-Cyr-en-Val;45650;Saint-Jean-le-Blanc;47.87568;1.9348;;;enseigne inconnue | correspondance OpenStreetMap ambigue;route de saint-cyr-en-val|45650|saint-jean-le-blanc;;;
10180001;;a_completer;;Rue du Général de Gaulle;10180;Saint-Lyé;48.367;3.997;;;enseigne inconnue | correspondance OpenStreetMap ambigue;rue du général de gaulle|10180|saint-lyé;;;
68000018;;a_completer;;ANGLE AV CLEMENCEAU 34 RTE DE BALE;68000;Colmar;48.065;7.367;;;enseigne inconnue | adresse BAN eloignee des coordonnees | aucune station OpenStreetMap proche;angle av clemenceau 34 rte de bale|68000|colmar;;;
31220006;24/24;ok_osm;Elan;A64 Sortie N°24      Lieu dit Catalan;31220;Lavelanet-de-Comminges;43.2613965;1.1157076;OpenStreetMap;way/109188234;;a64 sortie n°24 lieu dit catalan|31220|lavelanet-de-comminges;;;
85630001;U;a_completer;;Rue de la Cure;85630;Barbâtre;46.945;-2.18;OpenStreetMap;way/150997282;;rue de la cure|85630|barbâtre;;;
37360001;;a_completer;;C C DE L HIPPODROME;37360;Neuillé-Pont-Pierre;47.54666;0.55172;;;enseigne inconnue | adresse BAN eloignee des coordonnees | aucune station OpenStreetMap proche;c c de l hippodrome|37360|neuillé-pont-pierre;;;
57200004;;a_completer;;Route de Bitche;57200;Sarreguemines;49.117;7.101;;;enseigne inconnue | aucune station OpenStreetMap proche;route de bitche|57200|sarreguemines;;;
83460002;;a_completer;;Voie Jacques Prévert;83460;Les Arcs;43.451;6.487;;;enseigne inconnue | adresse BAN eloignee des coordonnees | correspondance OpenStreetMap ambigue;voie jacques prévert|83460|les arcs;;;
6220003;;a_completer;;117 Vieille Route de Cannes;06220;Vallauris;43.56968;7.04684;;;enseigne inconnue | correspondance OpenStreetMap ambigue;117 vieille route de cannes|06220|vallauris;;;
11000015;;a_completer;;ROUTE DE LIMOUX RN 118;11000;Carcassonne;43.197;2.323;;;enseigne inconnue | adresse BAN eloignee des coordonnees | aucune station OpenStreetMap proche;route de limoux rn 118|11000|carcassonne;;;
62710001;;a_completer;;Rue Raoul Briquet;62710;Courrières;50.448;2.948;;;enseigne inconnue | adresse BAN eloignee des coordonnees | correspondance OpenStreetMap ambigue;rue raoul briquet|62710|courrières;;;
73200002;;a_completer;;PLAINE DE CONFLANS;73200;Albertville;45.667;6.394;;;enseigne inconnue | adresse BAN eloignee des coordonnees | correspondance OpenStreetMap ambigue;plaine de conflans|73200|albertville;;;
5160001;U;a_completer;;Avenue de la Combe d'Or;05160;Savines-le-Lac;44.5262761;6.4091376;OpenStreetMap;node/264161003;;avenue de la combe d'or|05160|savines-le-lac;;;
57500001;;a_completer;;Avenue du Général Patton;57500;Saint-Avold;49.116;6.708;;;enseigne inconnue | correspondance OpenStreetMap ambigue;avenue du général patton|57500|saint-avold;;;
33390001;;a_completer;;51 Pontet Sud Est;33390;Eyrans;45.19;-0.619;;;enseigne inconnue | adresse BAN eloignee des coordonnees | aucune station OpenStreetMap proche;51 pontet sud est|33390|eyrans;;;
62250010;;a_completer;;AUTOROUTE A16 - AIRE DE L'EPITRE;62250;Offrethun;50.785;1.694;;;enseigne inconnue | adresse BAN eloignee des coordonnees | aucune station OpenStreetMap proche;autoroute a16 - aire de l'epitre|62250|offrethun;;;
42390001;;a_completer;;Chemin de Montravel;42390;Villars;45.473;4.342;;;enseigne inconnue | adresse BAN eloignee des coordonnees | correspondance OpenStreetMap ambigue;chemin de montravel|42390|villars;;;
27930005;;a_completer;;RN 154 Caër;27930;Normanville;49.06757;1.17164;;;enseigne inconnue | adresse BAN eloignee des coordonnees | aucune station OpenStreetMap proche;rn 154 caër|27930|normanville;;;
12300004;;a_completer;;RD 963 LIEU DIT LA PLANQUE;12300;Flagnac;44.604212;2.247546;;;enseigne inconnue | correspondance OpenStreetMap ambigue;rd 963 lieu dit la planque|12300|flagnac;;;
9110003;;a_completer;;ZA N20 ALLEE DU BOIS DES ESQUERS;09110;Perles-et-Castelet;42.744232;1.785567;;;enseigne inconnue | adresse BAN eloignee des coordonnees | aucune station OpenStreetMap proche;za n20 allee du bois des esquers|09110|perles-et-castelet;;;
44450002;;a_completer;;BD PASTEUR;44450;Divatte-sur-Loire;47.269;-1.335;;;enseigne inconnue | correspondance OpenStreetMap ambigue;bd pasteur|44450|divatte-sur-loire;;;
71570003;;a_completer;;le pré des grandes terres;71570;La Chapelle-de-Guinchay;46.21;4.757;;;enseigne inconnue | adresse BAN eloignee des coordonnees | correspondance OpenStreetMap ambigue;le pré des grandes terres|71570|la chapelle-de-guinchay;;;
52700002;E.Leclerc;a_verifier_absente_osm;E.Leclerc;Rue du Général Leclerc;52700;Rimaucourt;48.25051;5.32944;Adresse officielle;;aucune station OpenStreetMap proche;rue du général leclerc|52700|rimaucourt;;;
59910001;;a_completer;;AVENUE DU GENERAL DE GAULLE;59910;Bondues;50.706;3.10134;;;enseigne inconnue | aucune station OpenStreetMap proche;avenue du general de gaulle|59910|bondues;;;
42370005;;a_completer;;603 rue du caporal Goutandier;42370;Renaison;46.057;3.928;;;enseigne inconnue | adresse BAN eloignee des coordonnees | correspondance OpenStreetMap ambigue;603 rue du caporal goutandier|42370|renaison;;;
18240002;;a_completer;;Les Fouchards Route de Cosne;18240;Boulleret;47.421;2.884;;;enseigne inconnue | adresse BAN eloignee des coordonnees | aucune station OpenStreetMap proche;les fouchards route de cosne|18240|boulleret;;;
47320004;;a_completer;;le Pesquier;47320;Bourran;44.33;0.378;;;enseigne inconnue | adresse BAN eloignee des coordonnees | correspondance OpenStreetMap ambigue;le pesquier|47320|bourran;;;
30800001;;a_completer;;1 Rue de Cambon;30800;Saint-Gilles;43.665;4.401;;;enseigne inconnue | adresse BAN eloignee des coordonnees | aucune station OpenStreetMap proche;1 rue de cambon|30800|saint-gilles;;;
11540001;;a_completer;;ROUTE NATIONALE 9;11540;Roquefort-des-Corbières;42.992;2.971;;;enseigne inconnue | adresse BAN eloignee des coordonnees | correspondance OpenStreetMap ambigue;route nationale 9|11540|roquefort-des-corbières;;;
83470003;;a_completer;;Route de Nice;83470;Saint-Maximin-la-Sainte-Baume;43.44;5.873;;;enseigne inconnue | adresse BAN eloignee des coordonnees | aucune station OpenStreetMap proche;route de nice|83470|saint-maximin-la-sainte-baume;;;
85170003;;a_completer;;Route de Nantes;85170;Bellevigny;46.787;-1.435;;;enseigne inconnue | aucune station OpenStreetMap proche;route de nantes|85170|bellevigny;;;
19600003;;a_completer;;Lieu-dit La Croix-Blanche;19600;Cressensac-Sarrazac;45.033;1.503;;;enseigne inconnue | adresse BAN eloignee des coordonnees | aucune station OpenStreetMap proche;lieu-dit la croix-blanche|19600|cressensac-sarrazac;;;
5240003;;a_completer;;LE MOULIN BARON;05240;La Salle-les-Alpes;44.942;6.569;;;enseigne inconnue | adresse BAN eloignee des coordonnees | correspondance OpenStreetMap ambigue;le moulin baron|05240|la salle-les-alpes;;;
22100001;;a_completer;;C CIAL LE CHENE;22100;Quévert;48.464;-2.087;;;enseigne inconnue | adresse BAN eloignee des coordonnees | aucune station OpenStreetMap proche;c cial le chene|22100|quévert;;;
30190002;;a_completer;;RN106;30190;Boucoiran-et-Nozières;43.976087;4.203494;;;enseigne inconnue | adresse BAN eloignee des coordonnees | correspondance OpenStreetMap ambigue;rn106|30190|boucoiran-et-nozières;;;
62490003;;a_completer;;1bis route nationale 50;62490;Fresnes-lès-Montauban;50.332;2.934;;;enseigne inconnue | adresse BAN eloignee des coordonnees | correspondance OpenStreetMap ambigue;1bis route nationale 50|62490|fresnes-lès-montauban;;;
54800006;TotalEnergies;a_verifier;TotalEnergies | Total;18-32, rue de Metz;54800;Jarny;49.151147;5.904559;Adresse officielle;;;18-32, rue de metz|54800|jarny;;;
66660002;U;a_completer;;ROUTE DE LA GARE;66660;Port-Vendres;42.5140452;3.1070418;OpenStreetMap;way/64234001;;route de la gare|66660|port-vendres;;;
3800004;;a_completer;;6 Avenue P.Mendes france;03800;Gannat;46.09963;3.211746;;;enseigne inconnue | adresse BAN eloignee des coordonnees | correspondance OpenStreetMap ambigue;6 avenue p.mendes france|03800|gannat;;;
11370004;;a_completer;;LIEUDIT CAP DE FRONTAVENUE DES ROSEAUX;11370;Leucate;42.854;3.035;;;enseigne inconnue | adresse BAN eloignee des coordonnees | correspondance OpenStreetMap ambigue;lieudit cap de frontavenue des roseaux|11370|leucate;;;
29140010;;a_completer;;ROUTE DE CADOL;29140;Melgven;47.914984;-3.84233;;;enseigne inconnue | adresse BAN eloignee des coordonnees | aucune station OpenStreetMap proche;route de cadol|29140|melgven;;;
68190001;;a_completer;;RUE DE PULVERSHEIM;68190;Ungersheim;47.858;7.289;;;enseigne inconnue | adresse BAN eloignee des coordonnees | aucune station OpenStreetMap proche;rue de pulversheim|68190|ungersheim;;;
6240004;;a_completer;;96 avenue Prince Rainier III;06240;Beausoleil;43.744768;7.426617;;;enseigne inconnue | adresse BAN eloignee des coordonnees | aucune station OpenStreetMap proche;96 avenue prince rainier iii|06240|beausoleil;;;
68470002;;a_completer;;19 route de Bussang;68470;Soultz-Haut-Rhin;47.888;7.218;;;enseigne inconnue | adresse BAN eloignee des coordonnees | aucune station OpenStreetMap proche;19 route de bussang|68470|soultz-haut-rhin;;;
34200013;;a_completer;;134 BD DE VERDUN;34200;Sète;43.413;3.683;;;enseigne inconnue | adresse BAN eloignee des coordonnees | correspondance OpenStreetMap ambigue;134 bd de verdun|34200|sète;;;
20090011;;a_completer;;BODICCIONE;20090;Ajaccio;41.93484;8.74775;;;enseigne inconnue | adresse BAN eloignee des coordonnees | correspondance OpenStreetMap ambigue;bodiccione|20090|ajaccio;;;
85000003;;a_completer;;Boulevard Stéphane Moreau;85000;La Roche-sur-Yon;46.665;-1.411;;;enseigne inconnue | adresse BAN eloignee des coordonnees | correspondance OpenStreetMap ambigue;boulevard stéphane moreau|85000|la roche-sur-yon;;;
82800002;;a_completer;;Route de Montricoux;82800;Nègrepelisse;44.077;1.571;;;enseigne inconnue | aucune station OpenStreetMap proche;route de montricoux|82800|nègrepelisse;;;
4260002;;a_completer;;Lieu-dit Bouchier;04260;Allos;44.26338;6.64132;;;enseigne inconnue | adresse BAN eloignee des coordonnees | aucune station OpenStreetMap proche;lieu-dit bouchier|04260|allos;;;
11290001;;a_completer;;A61 Aire d'Arzens Sud;11290;Arzens;43.221;2.206;;;enseigne inconnue | adresse BAN eloignee des coordonnees | aucune station OpenStreetMap proche;a61 aire d'arzens sud|11290|arzens;;;
4130004;;a_completer;;AUTOROUTE A51 - AIRE DE VOLX OUEST;04130;La Brillanne;43.94225;5.89247;;;enseigne inconnue | adresse BAN eloignee des coordonnees | aucune station OpenStreetMap proche;autoroute a51 - aire de volx ouest|04130|la brillanne;;;
4500001;;a_completer;;Route de Marseille;04500;Riez;43.815;6.087;;;enseigne inconnue | adresse BAN eloignee des coordonnees | correspondance OpenStreetMap ambigue;route de marseille|04500|riez;;;
13660002;;a_completer;;Vieille Route de Saint-Rémy;13660;Plan-d'Orgon;43.7962;4.98973;;;enseigne inconnue | adresse BAN eloignee des coordonnees | aucune station OpenStreetMap proche;vieille route de saint-rémy|13660|plan-d'orgon;;;
14760002;;a_completer;;ROUTE DE BRETAGNE;14760;Bretteville-sur-Odon;49.16575;-0.41597;;;enseigne inconnue | correspondance OpenStreetMap ambigue;route de bretagne|14760|bretteville-sur-odon;;;
53230003;;a_completer;;ROUTE DE CRAON;53230;Cossé-le-Vivien;47.94462;-0.911078;;;enseigne inconnue | adresse BAN eloignee des coordonnees | aucune station OpenStreetMap proche;route de craon|53230|cossé-le-vivien;;;
20230008;;a_completer;;Rn 198 Alistro;20230;Sant'Andréa-di-Cotone;42.314265;9.489073;;;enseigne inconnue | adresse BAN eloignee des coordonnees | aucune station OpenStreetMap proche;rn 198 alistro|20230|sant'andréa-di-cotone;;;
20620004;;a_completer;;Lot Arbuceta Rond Point Ceppe;20620;Biguglia;42.627;9.429;;;enseigne inconnue | adresse BAN eloignee des coordonnees | aucune station OpenStreetMap proche;lot arbuceta rond point ceppe|20620|biguglia;;;
70220003;;a_completer;;RUE DE LUXEUIL;70220;Fougerolles-Saint-Valbert;47.879248;6.394441;;;enseigne inconnue | correspondance OpenStreetMap ambigue;rue de luxeuil|70220|fougerolles-saint-valbert;;;
21530002;Perreau Carburants;ok_osm;Eni;hameau de bierre en morvan;21530;La Roche-en-Brenil;47.392724;4.160232;OpenStreetMap;node/5647374785;adresse BAN eloignee des coordonnees;hameau de bierre en morvan|21530|la roche-en-brenil;;;
48150002;;a_completer;;ROUTE DE MENDE;48150;Meyrueis;44.18;3.43;;;enseigne inconnue | adresse BAN eloignee des coordonnees | correspondance OpenStreetMap ambigue;route de mende|48150|meyrueis;;;
31120010;Total Access;a_verifier;Total Access | Total;43 ROUTE D ESPAGNE;31120;Portet-sur-Garonne;43.519344;1.389824;Adresse officielle;;;43 route d espagne|31120|portet-sur-garonne;;;
31530004;;a_completer;;ROUTE DE GRENADE;31530;Montaigut-sur-Save;43.685;1.215;;;enseigne inconnue | adresse BAN eloignee des coordonnees | aucune station OpenStreetMap proche;route de grenade|31530|montaigut-sur-save;;;
68730001;;a_completer;;Rue du 19 Novembre;68730;Blotzheim;47.607;7.501;;;enseigne inconnue | adresse BAN eloignee des coordonnees | correspondance OpenStreetMap ambigue;rue du 19 novembre|68730|blotzheim;;;
43170002;;a_completer;;ZI du Gray;43170;Saugues;44.969;3.541;;;enseigne inconnue | correspondance OpenStreetMap ambigue;zi du gray|43170|saugues;;;
44521001;;a_completer;;RN 23 - LES HAUTES LANDES;44521;Couffé;47.39123;-1.29207;;;enseigne inconnue | adresse BAN eloignee des coordonnees | aucune station OpenStreetMap proche;rn 23 - les hautes landes|44521|couffé;;;
46500001;;a_completer;;ROUTE DE ST CERE;46500;Gramat;44.78723;1.74089;;;enseigne inconnue | adresse BAN eloignee des coordonnees | aucune station OpenStreetMap proche;route de st cere|46500|gramat;;;
54290001;;a_completer;;2 rue de Virecourt;54290;Bayon;48.470179;6.312585;;;enseigne inconnue | adresse BAN eloignee des coordonnees | correspondance OpenStreetMap ambigue;2 rue de virecourt|54290|bayon;;;
51100056;;a_completer;;ZAC DE SAINT LEONARD RN44;51100;Saint-Léonard;49.227;4.108;;;enseigne inconnue | correspondance OpenStreetMap ambigue;zac de saint leonard rn44|51100|saint-léonard;;;
62130002;;a_completer;;Rue d'Arras;62130;Saint-Pol-sur-Ternoise;50.381;2.342;;;enseigne inconnue | correspondance OpenStreetMap ambigue;rue d'arras|62130|saint-pol-sur-ternoise;;;
62870002;;a_completer;;Rue Daniel Ranger;62870;Campagne-lès-Hesdin;50.401;1.88;;;enseigne inconnue | correspondance OpenStreetMap ambigue;rue daniel ranger|62870|campagne-lès-hesdin;;;
69570002;;a_completer;;AIRE PORTE DE LYON;69570;Dardilly;45.813;4.756;;;enseigne inconnue | adresse BAN eloignee des coordonnees | aucune station OpenStreetMap proche;aire porte de lyon|69570|dardilly;;;
71210009;;a_completer;;RN 80 ROND POINT J. ROSE;71210;Montchanin;46.75547;4.48622;;;enseigne inconnue | adresse BAN eloignee des coordonnees | aucune station OpenStreetMap proche;rn 80 rond point j. rose|71210|montchanin;;;
95270004;;a_completer;;RN 16;95270;Épinay-Champlâtreux;49.085;2.416;;;enseigne inconnue | adresse BAN eloignee des coordonnees | correspondance OpenStreetMap ambigue;rn 16|95270|épinay-champlâtreux;;;
75015030;;a_completer;;1 QUATER BOULEVARD VICTOR;75015;Paris;48.834;2.285;;;enseigne inconnue | adresse BAN eloignee des coordonnees | correspondance OpenStreetMap ambigue;1 quater boulevard victor|75015|paris;;;
57430001;;a_completer;;ROUTE DE STRASBOURG;57430;Sarralbe;48.991;7.028;;;enseigne inconnue | correspondance OpenStreetMap ambigue;route de strasbourg|57430|sarralbe;;;
62127001;;a_completer;;22, route Nationale;62127;Tincques;50.356;2.48;;;enseigne inconnue | adresse BAN eloignee des coordonnees | correspondance OpenStreetMap ambigue;22, route nationale|62127|tincques;;;
81710002;;a_completer;;11 BIS ROUTE DE TOULOUSE;81710;Saïx;43.58;2.175;;;enseigne inconnue | adresse BAN eloignee des coordonnees | aucune station OpenStreetMap proche;11 bis route de toulouse|81710|saïx;;;
77120006;;a_completer;;AVENUE DE STRASBOURG;77120;Coulommiers;48.801;3.087;;;enseigne inconnue | adresse BAN eloignee des coordonnees | correspondance OpenStreetMap ambigue;avenue de strasbourg|77120|coulommiers;;;
84200003;;a_completer;;La Venue de Carpentras;84380;Mazan;44.05877;5.11102;;;enseigne inconnue | adresse BAN eloignee des coordonnees | correspondance OpenStreetMap ambigue;la venue de carpentras|84380|mazan;;;
52220002;;a_completer;;ZI LES PATIS;52220;La Porte du Der;48.48;4.771;;;enseigne inconnue | adresse BAN eloignee des coordonnees | correspondance OpenStreetMap ambigue;zi les patis|52220|la porte du der;;;
63220001;;a_completer;;route de beurriéres;63220;Arlanc;45.414;3.725;;;enseigne inconnue | correspondance OpenStreetMap ambigue;route de beurriéres|63220|arlanc;;;
12160003;;a_completer;;600 Avenue de Rodez;12160;Baraqueville;44.277;2.444;;;enseigne inconnue | correspondance OpenStreetMap ambigue;600 avenue de rodez|12160|baraqueville;;;
10260003;;a_completer;;RD185 LES GRANDES FOSSES;10260;Vaudes;48.181;4.189;;;enseigne inconnue | adresse BAN eloignee des coordonnees | correspondance OpenStreetMap ambigue;rd185 les grandes fosses|10260|vaudes;;;
60870002;;a_completer;;Avenue des Pommiers;60870;Villers-Saint-Paul;49.289;2.5;;;enseigne inconnue | correspondance OpenStreetMap ambigue;avenue des pommiers|60870|villers-saint-paul;;;
6400010;;a_completer;;57 BD DU RIOU;06400;Cannes;43.559;7.002;;;enseigne inconnue | adresse BAN eloignee des coordonnees | correspondance OpenStreetMap ambigue;57 bd du riou|06400|cannes;;;
21120001;;a_completer;;9 Rue François Mitterrand;21120;Is-sur-Tille;47.52771;5.11288;;;enseigne inconnue | correspondance OpenStreetMap ambigue;9 rue françois mitterrand|21120|is-sur-tille;;;
88600002;Independent;a_completer;;3 et 10 Rue de Gérardmer;88600;Bruyères;48.199;6.727;OpenStreetMap;node/3141881029;correspondance OpenStreetMap ambigue;3 et 10 rue de gérardmer|88600|bruyères;;;
64233001;;a_completer;;route de bayonne;64230;Lons;43.318;-0.424;;;enseigne inconnue | adresse BAN eloignee des coordonnees | correspondance OpenStreetMap ambigue;route de bayonne|64230|lons;;;
24410003;;a_completer;;229 les grand champs;24410;Saint Aulaye-Puymangou;45.168;0.081;;;enseigne inconnue | adresse BAN eloignee des coordonnees | aucune station OpenStreetMap proche;229 les grand champs|24410|saint aulaye-puymangou;;;
7300005;;a_completer;;Chemin de Saint-Vincent;07300;Tournon-sur-Rhône;45.055;4.832;;;enseigne inconnue | correspondance OpenStreetMap ambigue;chemin de saint-vincent|07300|tournon-sur-rhône;;;
46000013;;a_completer;;47, Avenue du 7 ème R.I.;46000;Cahors;44.449287;1.437236;;;enseigne inconnue | adresse BAN eloignee des coordonnees | aucune station OpenStreetMap proche;47, avenue du 7 ème r.i.|46000|cahors;;;
