id;enseigne_actuelle;statut_enseigne;suggestions_enseigne;adresse;cp;ville;latitude;longitude;source_enseigne;osm_id;motifs_controle;signature;enseigne_corrigee;decision;commentaire
56580001;U;a_completer;;16 rue chateaubriand;56580;Bréhan;48.061;-2.69;OpenStreetMap;node/3489531057;;16 rue chateaubriand|56580|bréhan;U;complete_auto_banco;"reference_prix_carburants; osm=node/3489531057; distance=0m"
24230002;;a_completer;;26 Avenue del peirigord;24230;Vélines;44.852;0.104;;;enseigne inconnue | adresse BAN eloignee des coordonnees | correspondance OpenStreetMap ambigue;26 avenue del peirigord|24230|vélines;Carrefour;complete_auto_banco;"reference_prix_carburants; osm=node/5554206820; distance=0m"
3210001;;a_completer;;1 ROUTE DE COSNE;03210;Souvigny;46.536;3.203;;;enseigne inconnue | adresse BAN eloignee des coordonnees | aucune station OpenStreetMap proche;1 route de cosne|03210|souvigny;Intermarché;complete_auto_banco;"reference_prix_carburants; osm=way/77061091; distance=0m"
77550004;;a_completer;;AUTOROUTE A5B - AIRE DE GALANDE-LA-MARE-LAROCHE;77550;Évry-Grégy-sur-Yerre;48.626;2.63;;;enseigne inconnue | adresse BAN eloignee des coordonnees | aucune station OpenStreetMap proche;autoroute a5b - aire de galande-la-mare-laroche|77550|évry-grégy-sur-yerre;Total;complete_auto_banco;"reference_prix_carburants; osm=node/7221637582; distance=0m"
74330002;;a_completer;;Route Nationale 508;74330;Epagny Metz-Tessy;45.941;6.088;;;enseigne inconnue | adresse BAN eloignee des coordonnees | aucune station OpenStreetMap proche;route nationale 508|74330|epagny metz-tessy;Total;complete_auto_banco;"reference_prix_carburants; osm=node/5649737457; distance=0m"
71000020;;a_completer;;Rue Frédéric Mistral;71000;Mâcon;46.292;4.811;;;enseigne inconnue | correspondance OpenStreetMap ambigue;rue frédéric mistral|71000|mâcon;Intermarché;complete_auto_banco;"reference_prix_carburants; osm=way/695980852; distance=0m"
14130010;;a_completer;;AIRE DE QUETTEVILLE A29;14130;Quetteville;49.336906;0.308019;;;enseigne inconnue | adresse BAN eloignee des coordonnees | aucune station OpenStreetMap proche;aire de quetteville a29|14130|quetteville;;;
86000021;;a_completer;;70, avenue John Kennedy;86000;Poitiers;46.589;0.36;;;enseigne inconnue | adresse BAN eloignee des coordonnees | correspondance OpenStreetMap ambigue;70, avenue john kennedy|86000|poitiers;Avia;complete_auto_banco;"reference_prix_carburants; osm=node/3865715159; distance=0m"
53140001;;a_completer;;zone Normandie Maine;53140;Pré-en-Pail-Saint-Samson;48.459277;-0.201908;;;enseigne inconnue | adresse BAN eloignee des coordonnees | aucune station OpenStreetMap proche;zone normandie maine|53140|pré-en-pail-saint-samson;U;complete_auto_banco;"reference_prix_carburants; osm=way/235319447; distance=0m"
29510005;;a_completer;;Rue d'Armor;29170;Saint-Évarzec;47.938;-4.023;;;enseigne inconnue | adresse BAN eloignee des coordonnees | correspondance OpenStreetMap ambigue;rue d'armor|29170|saint-évarzec;Intermarché;complete_auto_banco;"reference_prix_carburants; osm=node/12780076046; distance=0m"
62560002;;a_completer;;26 RUE PRINCIPALE;62560;Dennebrœucq;50.571189;2.150657;;;;26 rue principale|62560|dennebrœucq;Elan;complete_auto_banco;"reference_prix_carburants; osm=node/4541694026; distance=0m"
82700001;;a_completer;;171 Avenue d'Auch;82700;Montech;43.956;1.221;;;enseigne inconnue | adresse BAN eloignee des coordonnees | correspondance OpenStreetMap ambigue;171 avenue d'auch|82700|montech;Total;complete_auto_banco;"reference_prix_carburants; osm=node/5615159486; distance=0m"
59760001;;a_completer;;Avenue de l'Ancien Village;59760;Grande-Synthe;51.011;2.293;;;enseigne inconnue | aucune station OpenStreetMap proche;avenue de l'ancien village|59760|grande-synthe;Auchan;complete_auto_banco;"reference_prix_carburants; osm=node/12062925770; distance=0m"
82710003;;a_completer;Esso;Aire de Nauze Vert, RN 20;82710;Bressols;43.968;1.339;;;enseigne inconnue | adresse BAN eloignee des coordonnees | aucune station OpenStreetMap proche;aire de nauze vert, rn 20|82710|bressols;Esso;complete_auto_banco;"reference_prix_carburants; osm=way/728677008; distance=0m"
83600020;;a_completer;;100 RDN 7 AV.DE VERDUN;83600;Fréjus;43.43809;6.719088;;;enseigne inconnue | adresse BAN eloignee des coordonnees | correspondance OpenStreetMap ambigue;100 rdn 7 av.de verdun|83600|fréjus;Total;complete_auto_banco;"reference_prix_carburants; osm=node/300715029; distance=0m"
79000015;;a_completer;;130 Avenue de NANTES;79000;Saint-Rémy;46.348104;-0.509968;;;enseigne inconnue | adresse BAN eloignee des coordonnees | aucune station OpenStreetMap proche;130 avenue de nantes|79000|saint-rémy;;;
84840003;U;a_completer;;81 Avenue de Montélimar;84840;Lapalud;44.312;4.686;OpenStreetMap;way/1134268514;;81 avenue de montélimar|84840|lapalud;U;complete_auto_banco;"reference_prix_carburants; osm=way/1134268514; distance=0m"
84200008;Independent;a_completer;;2875 Route de malaucene;84200;Carpentras;44.0811865;5.0678917;OpenStreetMap;node/1332513206;;2875 route de malaucene|84200|carpentras;Independent;complete_auto_banco;"reference_prix_carburants; osm=node/1332513206; distance=0m"
21500002;;a_completer;;Rue de Dijon;21500;Montbard;47.62499;4.3466;;;enseigne inconnue | correspondance OpenStreetMap ambigue;rue de dijon|21500|montbard;Total;complete_auto_banco;"reference_prix_carburants; osm=way/117869453; distance=0m"
6640002;U;a_completer;;QUARTIER LE PEYRON;06640;Saint-Jeannet;43.743573;7.146356;OpenStreetMap;node/1329928757;adresse BAN eloignee des coordonnees;quartier le peyron|06640|saint-jeannet;Esso;complete_auto_banco;"proximite_gps; osm=node/1329928757; distance=2m"
52540001;;a_completer;;RUE PASTEUR;62540;Marles-les-Mines;50.503;2.508;;;enseigne inconnue | correspondance OpenStreetMap ambigue;rue pasteur|62540|marles-les-mines;Intermarché;complete_auto_banco;"reference_prix_carburants; osm=node/1346552898; distance=0m"
39120002;;a_completer;;Route de Longwy;39120;Chaussin;46.958;5.409;;;enseigne inconnue | adresse BAN eloignee des coordonnees | correspondance OpenStreetMap ambigue;route de longwy|39120|chaussin;Intermarché;complete_auto_banco;"reference_prix_carburants; osm=node/4872777538; distance=0m"
49330004;;a_completer;;ROUTE D'ANGERS;49330;Les Hauts-d'Anjou;47.664215;-0.56046;;;enseigne inconnue | adresse BAN eloignee des coordonnees | aucune station OpenStreetMap proche;route d'angers|49330|les hauts-d'anjou;TotalEnergies;complete_auto_banco;"reference_prix_carburants; osm=way/235678834; distance=0m"
85150001;U;a_completer;;1 rue des Blés, La Mothe Achard;85150;Les Achards;46.607;-1.664;OpenStreetMap;way/107962032;correspondance OpenStreetMap ambigue;1 rue des blés, la mothe achard|85150|les achards;U;complete_auto_banco;"reference_prix_carburants; osm=way/107962032; distance=0m"
8210001;;a_completer;;Avenue de la Paix;08210;Mouzon;49.61023;5.07788;;;enseigne inconnue | adresse BAN eloignee des coordonnees | correspondance OpenStreetMap ambigue;avenue de la paix|08210|mouzon;Esso;complete_auto_banco;"reference_prix_carburants; osm=node/4464857411; distance=0m"
33370007;;a_completer;;Bois Menu - Val Laurence;33370;Fargues-Saint-Hilaire;44.825;-0.444;;;enseigne inconnue | correspondance OpenStreetMap ambigue;bois menu - val laurence|33370|fargues-saint-hilaire;Système U;complete_auto_banco;"reference_prix_carburants; osm=way/1393082401; distance=0m"
91430003;;a_completer;;ROUTE NATIONALE 444;91430;Igny;48.735;2.225;;;enseigne inconnue | adresse BAN eloignee des coordonnees | aucune station OpenStreetMap proche;route nationale 444|91430|igny;BP;complete_auto_banco;"reference_prix_carburants; osm=node/199040487; distance=0m"
4320001;;a_completer;;STATION RN 4202;04320;Entrevaux;43.949;6.81;;;enseigne inconnue | adresse BAN eloignee des coordonnees | aucune station OpenStreetMap proche;station rn 4202|04320|entrevaux;Eni;complete_auto_banco;"reference_prix_carburants; osm=node/1334816518; distance=0m"
88250003;;a_completer;Esso;2 bis route de Cornimont;88250;Rochesson;48.004;6.834;;;enseigne inconnue | adresse BAN eloignee des coordonnees | aucune station OpenStreetMap proche;2 bis route de cornimont|88250|rochesson;Système U;complete_auto_banco;"reference_prix_carburants; osm=node/12505419884; distance=0m"
28700004;U;a_completer;;Zac du Pays Alnelois;28700;Auneau-Bleury-Saint-Symphorien;48.477085;1.767638;OpenStreetMap;way/184302317;;zac du pays alnelois|28700|auneau-bleury-saint-symphorien;U;complete_auto_banco;"reference_prix_carburants; osm=way/184302317; distance=0m"
9270003;;a_completer;;LIEU DIT LE RAUNIER;09270;Mazères;43.251;1.678;;;enseigne inconnue | adresse BAN eloignee des coordonnees | aucune station OpenStreetMap proche;lieu dit le raunier|09270|mazères;Carrefour;complete_auto_banco;"reference_prix_carburants; osm=way/368814964; distance=0m"
29710004;U;a_completer;;RUE DES ECOLES;29710;Landudec;48.001;-4.336;OpenStreetMap;way/263328439;adresse BAN eloignee des coordonnees;rue des ecoles|29710|landudec;U;complete_auto_banco;"reference_prix_carburants; osm=way/263328439; distance=0m"
68124002;;a_completer;;1 ROUTE DE TURCKHEIM;68124;Wintzenheim;48.08594;7.31377;;;enseigne inconnue | adresse BAN eloignee des coordonnees | correspondance OpenStreetMap ambigue;1 route de turckheim|68124|wintzenheim;E.Leclerc;complete_auto_banco;"reference_prix_carburants; osm=way/1234628599; distance=0m"
44530003;U;a_completer;;route de Pontchâteau;44530;Saint-Gildas-des-Bois;47.50937;-2.04035;OpenStreetMap;node/25209866;;route de pontchâteau|44530|saint-gildas-des-bois;U;complete_auto_banco;"reference_prix_carburants; osm=node/25209866; distance=0m"
31210001;;a_completer;;Avenue de Luchon;31210;Gourdan-Polignan;43.06544;0.58785;;;enseigne inconnue | adresse BAN eloignee des coordonnees | correspondance OpenStreetMap ambigue;avenue de luchon|31210|gourdan-polignan;Super U;complete_auto_banco;"reference_prix_carburants; osm=way/74485281; distance=0m"
36100003;;a_completer;;RN 151;36100;Saint-Aoustrille;46.938;1.947;;;enseigne inconnue | adresse BAN eloignee des coordonnees | aucune station OpenStreetMap proche;rn 151|36100|saint-aoustrille;Elan;complete_auto_banco;"reference_prix_carburants; osm=node/6592837677; distance=0m"
45320004;;a_completer;;RUE DES PATUREAUX;45320;Courtenay;48.037;3.047;;;enseigne inconnue | correspondance OpenStreetMap ambigue;rue des patureaux|45320|courtenay;Intermarché;complete_auto_banco;"reference_prix_carburants; osm=way/68499861; distance=0m"
60650006;;a_completer;;RN31 - LE VIVIER DANGER;60650;Ons-en-Bray;49.417;1.924;;;enseigne inconnue | adresse BAN eloignee des coordonnees | aucune station OpenStreetMap proche;rn31 - le vivier danger|60650|ons-en-bray;Carrefour;complete_auto_banco;"reference_prix_carburants; osm=node/6145875118; distance=0m"
57730001;;a_completer;;RD 910 A;57730;Valmont;49.077;6.693;;;enseigne inconnue | aucune station OpenStreetMap proche;rd 910 a|57730|valmont;Super U;complete_auto_banco;"reference_prix_carburants; osm=way/310761458; distance=0m"
56150001;;a_completer;;ZA de Kermestre;56150;Baud;47.877;-3.02;;;enseigne inconnue | adresse BAN eloignee des coordonnees | correspondance OpenStreetMap ambigue;za de kermestre|56150|baud;Carrefour;complete_auto_banco;"reference_prix_carburants; osm=way/208475022; distance=0m"
17470001;;a_completer;;Route de Poitiers;17470;Aulnay;46.029;-0.351;;;enseigne inconnue | adresse BAN eloignee des coordonnees | correspondance OpenStreetMap ambigue;route de poitiers|17470|aulnay;Intermarché;complete_auto_banco;"reference_prix_carburants; osm=way/1160659257; distance=0m"
38220001;;a_completer;;RN 91;38220;Vizille;45.078;5.773;;;enseigne inconnue | adresse BAN eloignee des coordonnees | aucune station OpenStreetMap proche;rn 91|38220|vizille;Carrefour;complete_auto_banco;"reference_prix_carburants; osm=way/104139427; distance=0m"
20600004;;a_completer;;Rond Point de Furiani;20600;Furiani;42.66306;9.43007;;;enseigne inconnue | adresse BAN eloignee des coordonnees | aucune station OpenStreetMap proche;rond point de furiani|20600|furiani;TotalEnergies;complete_auto_banco;"reference_prix_carburants; osm=way/223689805; distance=0m"
14210001;;a_completer;;ZA LA CROIX BOUCHER;14210;Évrecy;49.10372;-0.50006;;;enseigne inconnue | adresse BAN eloignee des coordonnees | correspondance OpenStreetMap ambigue;za la croix boucher|14210|évrecy;Intermarché;complete_auto_banco;"reference_prix_carburants; osm=node/2440453306; distance=0m"
63550001;;a_completer;;10 ROUTE DU LAC;63550;Saint-Rémy-sur-Durolle;45.889;3.596;;;enseigne inconnue | adresse BAN eloignee des coordonnees | correspondance OpenStreetMap ambigue;10 route du lac|63550|saint-rémy-sur-durolle;Station service du Lac;complete_auto_banco;"reference_prix_carburants; osm=way/147130801; distance=0m"
21300004;;a_completer;;AVENUE ROLAND CARRAZ;21300;Chenôve;47.29307;5.01616;;;enseigne inconnue | aucune station OpenStreetMap proche;avenue roland carraz|21300|chenôve;Super U;complete_auto_banco;"reference_prix_carburants; osm=way/254702321; distance=0m"
81400001;U;a_completer;;150 Avenue d'Albi;81400;Blaye-les-Mines;44.027;2.155;OpenStreetMap;node/25210924;;150 avenue d'albi|81400|blaye-les-mines;U;complete_auto_banco;"reference_prix_carburants; osm=node/25210924; distance=0m"
57970002;;a_completer;;Parc Unicom;57970;Basse-Ham;49.375;6.229;;;enseigne inconnue | adresse BAN eloignee des coordonnees | aucune station OpenStreetMap proche;parc unicom|57970|basse-ham;Intermarché;complete_auto_banco;"reference_prix_carburants; osm=way/130503755; distance=0m"
95420005;;a_completer;;RN 14;95420;Charmont;49.13514;1.78964;;;enseigne inconnue | aucune station OpenStreetMap proche;rn 14|95420|charmont;;;
92230010;;a_completer;;113 AV LAURENT CELY;92230;Gennevilliers;48.92082;2.30617;;;enseigne inconnue | correspondance OpenStreetMap ambigue;113 av laurent cely|92230|gennevilliers;;;
16150003;;a_completer;;ZA DE CHASSAT;16150;Chabanais;45.878;0.726;;;enseigne inconnue | adresse BAN eloignee des coordonnees | aucune station OpenStreetMap proche;za de chassat|16150|chabanais;Super U;complete_auto_banco;"reference_prix_carburants; osm=node/1849652245; distance=0m"
77140010;;a_completer;;Autoroute du Soleil - AIRE DE NEMOURS OUEST;77140;Nemours;48.261702;2.722037;;;enseigne inconnue | adresse BAN eloignee des coordonnees | correspondance OpenStreetMap ambigue;autoroute du soleil - aire de nemours ouest|77140|nemours;Shell;complete_auto_banco;"reference_prix_carburants; osm=node/7398979129; distance=0m"
20220006;;a_completer;;RN 197;20220;Aregno;42.609;8.875;;;enseigne inconnue | adresse BAN eloignee des coordonnees | correspondance OpenStreetMap ambigue;rn 197|20220|aregno;Total;complete_auto_banco;"reference_prix_carburants; osm=node/60676563; distance=0m"
58320001;;a_completer;;ROUTE DE PARIS;58320;Pougues-les-Eaux;47.07736;3.09879;;;enseigne inconnue | aucune station OpenStreetMap proche;route de paris|58320|pougues-les-eaux;Carrefour;complete_auto_banco;"reference_prix_carburants; osm=node/9425769015; distance=0m"
91590009;;a_completer;;RN191 - ROUTE DE CORBEIL;91590;Baulne;48.507;2.37442;;;enseigne inconnue | adresse BAN eloignee des coordonnees | aucune station OpenStreetMap proche;rn191 - route de corbeil|91590|baulne;Total Access;complete_auto_banco;"reference_prix_carburants; osm=node/2376429301; distance=0m"
73140003;;a_completer;;14 bis rue du Temple;73140;Saint-Martin-d'Arc;45.22;6.459;;;enseigne inconnue | adresse BAN eloignee des coordonnees | correspondance OpenStreetMap ambigue;14 bis rue du temple|73140|saint-martin-d'arc;Total;complete_auto_banco;"reference_prix_carburants; osm=node/9377086886; distance=0m"
55320001;;a_completer;;Lieu-dit le moulin Charlier;55320;Dieue-sur-Meuse;49.077;5.448;;;enseigne inconnue | adresse BAN eloignee des coordonnees | aucune station OpenStreetMap proche;lieu-dit le moulin charlier|55320|dieue-sur-meuse;Intermarché;complete_auto_banco;"reference_prix_carburants; osm=node/3927007958; distance=0m"
69380009;;a_completer;;A6 Aire des Cheres Ouest;69380;Les Chères;45.895;4.732;;;enseigne inconnue | adresse BAN eloignee des coordonnees | aucune station OpenStreetMap proche;a6 aire des cheres ouest|69380|les chères;Esso;complete_auto_banco;"reference_prix_carburants; osm=node/691280978; distance=0m"
60510001;;a_completer;;ZONE DE LA COUTURELLE;60510;Bresles;49.419;2.255;;;enseigne inconnue | adresse BAN eloignee des coordonnees | aucune station OpenStreetMap proche;zone de la couturelle|60510|bresles;Intermarché;complete_auto_banco;"reference_prix_carburants; osm=node/11897582681; distance=0m"
63450002;;a_completer;;CD 213;63450;Saint-Amant-Tallende;45.669;3.109;;;enseigne inconnue | aucune station OpenStreetMap proche;cd 213|63450|saint-amant-tallende;Intermarché;complete_auto_banco;"reference_prix_carburants; osm=way/148928766; distance=0m"
54120004;;a_completer;;Route de Lachapelle;54120;Deneuvre;48.442;6.737;;;enseigne inconnue | adresse BAN eloignee des coordonnees | correspondance OpenStreetMap ambigue;route de lachapelle|54120|deneuvre;Intermarché;complete_auto_banco;"reference_prix_carburants; osm=way/227484106; distance=0m"
35200008;U;a_completer;;7 boulevard de l'yser;35200;Rennes;48.092;-1.68;OpenStreetMap;node/4200542678;;7 boulevard de l'yser|35200|rennes;U;complete_auto_banco;"reference_prix_carburants; osm=node/4200542678; distance=0m"
1700004;;a_completer;;ZAC des Baterses;01700;Beynost;45.826;4.999;;;enseigne inconnue | adresse BAN eloignee des coordonnees | correspondance OpenStreetMap ambigue;zac des baterses|01700|beynost;E.Leclerc;complete_auto_banco;"reference_prix_carburants; osm=way/1093558762; distance=0m"
70270001;;a_completer;;25 Route de Lure;70270;Mélisey;47.74964;6.56445;;;enseigne inconnue | adresse BAN eloignee des coordonnees | correspondance OpenStreetMap ambigue;25 route de lure|70270|mélisey;Avia;complete_auto_banco;"reference_prix_carburants; osm=node/3385161743; distance=0m"
19510002;;a_completer;;AUTOROUTE A20 - AIRE DE PORTE DE CORREZE;19510;Masseret;45.54068;1.52039;;;enseigne inconnue | adresse BAN eloignee des coordonnees | aucune station OpenStreetMap proche;autoroute a20 - aire de porte de correze|19510|masseret;Total;complete_auto_banco;"reference_prix_carburants; osm=way/680948047; distance=0m"
19600001;;a_completer;;Les Combettes;19270;Ussac;45.195;1.542;;;enseigne inconnue | adresse BAN eloignee des coordonnees | aucune station OpenStreetMap proche;les combettes|19270|ussac;Carrefour Contact;complete_auto_banco;"reference_prix_carburants; osm=node/2932420501; distance=0m"
76590002;;a_completer;;Route de Newton Longueville;76590;Longueville-sur-Scie;49.79545;1.10615;;;enseigne inconnue | correspondance OpenStreetMap ambigue;route de newton longueville|76590|longueville-sur-scie;Intermarché;complete_auto_banco;"reference_prix_carburants; osm=node/3886372382; distance=0m"
19100016;;a_completer;;108 AVENUE PIERRE SEMARD;19100;Brive-la-Gaillarde;45.156;1.518;;;enseigne inconnue | adresse BAN eloignee des coordonnees | correspondance OpenStreetMap ambigue;108 avenue pierre semard|19100|brive-la-gaillarde;Total Access;complete_auto_banco;"reference_prix_carburants; osm=way/124615241; distance=0m"
21400010;Independent;a_completer;;15 rue courcelles prevoires;21400;Châtillon-sur-Seine;47.8634;4.571664;OpenStreetMap;node/1265029555;;15 rue courcelles prevoires|21400|châtillon-sur-seine;Independent;complete_auto_banco;"proximite_gps; osm=node/1265029555; distance=0m"
20219003;;a_completer;;RT 20;20219;Vivario;42.172;9.17;;;enseigne inconnue | adresse BAN eloignee des coordonnees | aucune station OpenStreetMap proche;rt 20|20219|vivario;Total;complete_auto_banco;"reference_prix_carburants; osm=node/850817717; distance=0m"
65240001;;a_completer;;LIEU DIT PLAS;65240;Arreau;42.899226;0.353642;;;enseigne inconnue | adresse BAN eloignee des coordonnees | correspondance OpenStreetMap ambigue;lieu dit plas|65240|arreau;Carrefour;complete_auto_banco;"reference_prix_carburants; osm=node/3753049425; distance=0m"
62230001;;a_completer;;Boulevard Raymond Splingard;62230;Saint-Étienne-au-Mont;50.651;1.609;;;enseigne inconnue | adresse BAN eloignee des coordonnees | aucune station OpenStreetMap proche;boulevard raymond splingard|62230|saint-étienne-au-mont;Carrefour;complete_auto_banco;"reference_prix_carburants; osm=node/898973732; distance=0m"
13370006;;a_completer;;Avenue du Pont Royal;13370;Mallemort;43.708;5.2;;;enseigne inconnue | adresse BAN eloignee des coordonnees | correspondance OpenStreetMap ambigue;avenue du pont royal|13370|mallemort;Intermarché;complete_auto_banco;"reference_prix_carburants; osm=node/1041940019; distance=0m"
79300007;;a_completer;;1 RUE JEAN GIONO;79300;Bressuire;46.850494;-0.47524;;;enseigne inconnue | adresse BAN eloignee des coordonnees | correspondance OpenStreetMap ambigue;1 rue jean giono|79300|bressuire;TotalEnergies;complete_auto_banco;"reference_prix_carburants; osm=node/12780098915; distance=0m"
13300009;;a_completer;;Route Nationale 113;13300;Salon-de-Provence;43.61236;5.096262;;;enseigne inconnue | correspondance OpenStreetMap ambigue;route nationale 113|13300|salon-de-provence;Independent;complete_auto_banco;"reference_prix_carburants; osm=way/100383557; distance=0m"
65110003;;a_completer;;route pierrefitte;65110;Cauterets;42.89995;-0.10814;;;enseigne inconnue | adresse BAN eloignee des coordonnees | aucune station OpenStreetMap proche;route pierrefitte|65110|cauterets;Carrefour;complete_auto_banco;"reference_prix_carburants; osm=node/534675024; distance=0m"
59264001;;a_completer;;ECHANGEUR 24;59264;Onnaing;50.387313;3.598736;;;enseigne inconnue | aucune station OpenStreetMap proche;echangeur 24|59264|onnaing;Total Access;complete_auto_banco;"reference_prix_carburants; osm=node/11083972708; distance=0m"
30750001;;a_completer;;Le Gardiol;30750;Lanuéjols;44.13128;3.38283;;;enseigne inconnue | adresse BAN eloignee des coordonnees | aucune station OpenStreetMap proche;le gardiol|30750|lanuéjols;Dyneff;complete_auto_banco;"reference_prix_carburants; osm=node/4444529227; distance=0m"
58140001;;a_completer;;AVENUE DU 8 MAI;58140;Lormes;47.282;3.821;;;enseigne inconnue | correspondance OpenStreetMap ambigue;avenue du 8 mai|58140|lormes;bi1;complete_auto_banco;"reference_prix_carburants; osm=node/2288951741; distance=0m"
70300004;;a_completer;;27 Rue des Martyrs de la Résistance;70300;Luxeuil-les-Bains;47.821;6.385;;;enseigne inconnue | correspondance OpenStreetMap ambigue;27 rue des martyrs de la résistance|70300|luxeuil-les-bains;Station Maison du Pneu Mariotte;complete_auto_banco;"reference_prix_carburants; osm=node/4786809367; distance=0m"
93290005;;a_completer;;DEVIATION CD 88 - 1 ROUTE DE ROI;93290;Tremblay-en-France;48.984;2.55;;;enseigne inconnue | adresse BAN eloignee des coordonnees | correspondance OpenStreetMap ambigue;deviation cd 88 - 1 route de roi|93290|tremblay-en-france;Total;complete_auto_banco;"reference_prix_carburants; osm=node/4115870190; distance=0m"
22440002;;a_completer;;Rue de Brest;22440;Trémuson;48.52276;-2.85671;;;enseigne inconnue | correspondance OpenStreetMap ambigue;rue de brest|22440|trémuson;Intermarché;complete_auto_banco;"reference_prix_carburants; osm=way/218942272; distance=0m"
13122001;;a_completer;;RES.VAL LOURDES;13122;Ventabren;43.54117;5.27115;;;enseigne inconnue | adresse BAN eloignee des coordonnees | correspondance OpenStreetMap ambigue;res.val lourdes|13122|ventabren;Total;complete_auto_banco;"reference_prix_carburants; osm=way/65720109; distance=0m"
80450001;;a_completer;;Rue Ambroise Croizat;80450;Camon;49.9;2.341;;;enseigne inconnue | correspondance OpenStreetMap ambigue;rue ambroise croizat|80450|camon;Intermarché;complete_auto_banco;"reference_prix_carburants; osm=node/10911354458; distance=0m"
95500012;;a_completer;;19 RUE GABRIEL PERI;95500;Gonesse;48.99401;2.42407;;;enseigne inconnue | correspondance OpenStreetMap ambigue;19 rue gabriel peri|95500|gonesse;Total Access;complete_auto_banco;"reference_prix_carburants; osm=way/105037901; distance=0m"
20140001;;a_completer;;RTE N 196;20140;Petreto-Bicchisano;41.78547;8.97933;;;enseigne inconnue | adresse BAN eloignee des coordonnees | correspondance OpenStreetMap ambigue;rte n 196|20140|petreto-bicchisano;Vito;complete_auto_banco;"reference_prix_carburants; osm=node/5649737446; distance=0m"
10190001;;a_completer;;AVENUE DE LA REPUBLIQUE;10190;Estissac;48.274;3.804;;;enseigne inconnue | adresse BAN eloignee des coordonnees | correspondance OpenStreetMap ambigue;avenue de la republique|10190|estissac;Avia XPress;complete_auto_banco;"reference_prix_carburants; osm=way/428974224; distance=0m"
13130005;;a_completer;;Avenue Henri Wallon;13130;Berre-l'Étang;43.484;5.181;;;enseigne inconnue | adresse BAN eloignee des coordonnees | aucune station OpenStreetMap proche;avenue henri wallon|13130|berre-l'étang;Dyneff;complete_auto_banco;"reference_prix_carburants; osm=node/25211107; distance=0m"
51700006;;a_completer;;Rue Clos de la Noue;51700;Châtillon-sur-Marne;49.08766;3.76238;;;enseigne inconnue | adresse BAN eloignee des coordonnees | correspondance OpenStreetMap ambigue;rue clos de la noue|51700|châtillon-sur-marne;Intermarché;complete_auto_banco;"reference_prix_carburants; osm=node/4983346681; distance=0m"
49124001;;a_completer;;360 RUE HAUTE DES BANCHAIS;49124;Angers;47.48298;-0.51446;;;enseigne inconnue | correspondance OpenStreetMap ambigue;360 rue haute des banchais|49124|angers;Super U;complete_auto_banco;"reference_prix_carburants; osm=way/134829327; distance=0m"
40110003;;a_completer;;RD38 ZAC DE SEGUES;40110;Ygos-Saint-Saturnin;43.976;-0.737;;;enseigne inconnue | aucune station OpenStreetMap proche;rd38 zac de segues|40110|ygos-saint-saturnin;Total;complete_auto_banco;"reference_prix_carburants; osm=node/5615071916; distance=0m"
11700001;;a_completer;;RN113;11700;Capendu;43.18546;2.5573;;;enseigne inconnue | adresse BAN eloignee des coordonnees | correspondance OpenStreetMap ambigue;rn113|11700|capendu;Dyneff;complete_auto_banco;"reference_prix_carburants; osm=way/265395065; distance=0m"
46000006;;a_completer;;Avenue Edouard Herriot;46000;Aujols;44.436;1.552;;;enseigne inconnue | adresse BAN eloignee des coordonnees | aucune station OpenStreetMap proche;avenue edouard herriot|46000|aujols;Intermarché;complete_auto_banco;"reference_prix_carburants; osm=way/328420052; distance=0m"
37270005;;a_completer;;62 CHEMIN DE LA BUSSARDIERE;37270;Véretz;47.3503792;0.8311044;;way/1493330118;;62 chemin de la bussardiere|37270|véretz;;;
33430001;;a_completer;;D3;33430;Bazas;44.433877;-0.218953;;;enseigne inconnue | adresse BAN eloignee des coordonnees | aucune station OpenStreetMap proche;d3|33430|bazas;Système U;complete_auto_banco;"reference_prix_carburants; osm=node/5649289026; distance=0m"
25430003;;a_completer;Eni;Croix-Denis;25430;Sancey;47.301796;6.569973;;;enseigne inconnue | adresse BAN eloignee des coordonnees | correspondance OpenStreetMap ambigue;croix-denis|25430|sancey;Avia;complete_auto_banco;"reference_prix_carburants; osm=node/9697872865; distance=0m"
60310001;;a_completer;;Zone Artisanale;60310;Lassigny;49.59;2.854;;;enseigne inconnue | adresse BAN eloignee des coordonnees | aucune station OpenStreetMap proche;zone artisanale|60310|lassigny;E.Leclerc;complete_auto_banco;"reference_prix_carburants; osm=way/360466582; distance=0m"
13700013;Independent;a_completer;;24 avenue Maréchal JUIN;13700;Marignane;43.419382;5.223334;OpenStreetMap;way/202478850;;24 avenue maréchal juin|13700|marignane;CB 24/24;complete_auto_banco;"reference_prix_carburants; osm=way/202478850; distance=0m"
56650001;Independent;a_completer;;RUE EMILE ZOLA;56650;Inzinzac-Lochrist;47.826;-3.252;OpenStreetMap;node/2209939371;;rue emile zola|56650|inzinzac-lochrist;Independent;complete_auto_banco;"reference_prix_carburants; osm=node/2209939371; distance=0m"
87130001;;a_completer;;LE ROUCHILLOUX;87130;Châteauneuf-la-Forêt;45.70942;1.59823;;;enseigne inconnue | adresse BAN eloignee des coordonnees | aucune station OpenStreetMap proche;le rouchilloux|87130|châteauneuf-la-forêt;Super U;complete_auto_banco;"reference_prix_carburants; osm=node/5573128647; distance=0m"
31600007;;a_completer;;RN 117 - LIEU DIT GUERIN;31600;Muret;43.488452;1.340283;;;enseigne inconnue | adresse BAN eloignee des coordonnees | aucune station OpenStreetMap proche;rn 117 - lieu dit guerin|31600|muret;Total Access;complete_auto_banco;"reference_prix_carburants; osm=way/81402488; distance=0m"
84500003;Independent;a_completer;;Route de Suze la Rousse;84500;Bollène;44.280839;4.802174;OpenStreetMap;way/73793777;adresse BAN eloignee des coordonnees;route de suze la rousse|84500|bollène;Independent;complete_auto_banco;"reference_prix_carburants; osm=way/73793777; distance=0m"
41140004;;a_completer;;12 Rue André Boulle. ZA LES PLANTES;41140;Noyers-sur-Cher;47.283;1.371;;;enseigne inconnue | adresse BAN eloignee des coordonnees | correspondance OpenStreetMap ambigue;12 rue andré boulle. za les plantes|41140|noyers-sur-cher;Intermarché;complete_auto_banco;"reference_prix_carburants; osm=node/2273954383; distance=0m"
50160003;;a_completer;;85, route de Saint Lô;50160;Condé-sur-Vire;49.04798;-0.99375;;;enseigne inconnue | adresse BAN eloignee des coordonnees | correspondance OpenStreetMap ambigue;85, route de saint lô|50160|condé-sur-vire;Elan;complete_auto_banco;"reference_prix_carburants; osm=node/5003404255; distance=0m"
74140006;;a_completer;;LES BLOSSONNIERS ROUTE DES VOIRONS;74140;Veigy-Foncenex;46.270227;6.257007;;;enseigne inconnue | adresse BAN eloignee des coordonnees | correspondance OpenStreetMap ambigue;les blossonniers route des voirons|74140|veigy-foncenex;bi1;complete_auto_banco;"reference_prix_carburants; osm=node/4585932500; distance=0m"
27170002;;a_completer;;Route de Beaumont;27170;Mesnil-en-Ouche;49.02978;0.74291;;;enseigne inconnue | adresse BAN eloignee des coordonnees | aucune station OpenStreetMap proche;route de beaumont|27170|mesnil-en-ouche;Carrefour;complete_auto_banco;"reference_prix_carburants; osm=node/1846378149; distance=0m"
19350002;;a_completer;;LASCHAMPS;19350;Chabrignac;45.316832;1.336977;;;enseigne inconnue | adresse BAN eloignee des coordonnees | correspondance OpenStreetMap ambigue;laschamps|19350|chabrignac;;;
1120008;;a_completer;;AUTOROUTE A42 - AIRE DE LYON MONTUEL;01120;Dagneux;45.847;5.074;;;enseigne inconnue | adresse BAN eloignee des coordonnees | correspondance OpenStreetMap ambigue;autoroute a42 - aire de lyon montuel|01120|dagneux;TotalEnergies;complete_auto_banco;"reference_prix_carburants; osm=node/811344527; distance=0m"
80260003;;a_completer;;RD 933 Le Champs St Pierre;80260;Flesselles;50.001;2.258;;;enseigne inconnue | adresse BAN eloignee des coordonnees | aucune station OpenStreetMap proche;rd 933 le champs st pierre|80260|flesselles;Intermarché;complete_auto_banco;"reference_prix_carburants; osm=way/294053125; distance=0m"
6200026;;a_completer;;217 PROMENADE DES ANGLAIS;06200;Nice;43.68588;7.23677;;;enseigne inconnue | aucune station OpenStreetMap proche;217 promenade des anglais|06200|nice;TotalEnergies;complete_auto_banco;"reference_prix_carburants; osm=node/278480456; distance=0m"
13100014;;a_completer;;122 COURS GAMBETTA;13100;Aix-en-Provence;43.520864;5.459002;;;enseigne inconnue | adresse BAN eloignee des coordonnees | correspondance OpenStreetMap ambigue;122 cours gambetta|13100|aix-en-provence;TotalEnergies;complete_auto_banco;"reference_prix_carburants; osm=node/2286691325; distance=0m"
12330004;;a_completer;;Route de Rodez;12330;Saint-Christophe-Vallon;44.469;2.414;;;enseigne inconnue | correspondance OpenStreetMap ambigue;route de rodez|12330|saint-christophe-vallon;Netto;complete_auto_banco;"reference_prix_carburants; osm=node/3318798806; distance=0m"
36130001;;a_completer;;ZAC DU GRAND DEOLS;36130;Déols;46.819;1.746;;;enseigne inconnue | adresse BAN eloignee des coordonnees | aucune station OpenStreetMap proche;zac du grand deols|36130|déols;Carrefour;complete_auto_banco;"reference_prix_carburants; osm=node/549757464; distance=0m"
20167004;;a_completer;;Route de Sagone;20167;Alata;41.965;8.782;;;enseigne inconnue | adresse BAN eloignee des coordonnees | correspondance OpenStreetMap ambigue;route de sagone|20167|alata;Total;complete_auto_banco;"reference_prix_carburants; osm=node/5620928425; distance=0m"
49450001;U;a_completer;;ZC LES ALOUETTES;49450;Sèvremoine;47.1141152;-0.9907737;OpenStreetMap;way/209152143;;zc les alouettes|49450|sèvremoine;U;complete_auto_banco;"reference_prix_carburants; osm=way/209152143; distance=0m"
8350002;;a_completer;;Rue Georges Clemenceau;08350;Donchery;49.698;4.866;;;enseigne inconnue | correspondance OpenStreetMap ambigue;rue georges clemenceau|08350|donchery;Carrefour;complete_auto_banco;"reference_prix_carburants; osm=node/1628924155; distance=0m"
77340007;;a_completer;;N104 LA FRANCILIENNE - AIRE PRE DE L'AULNES ET DE LA GDE MAR;77340;Émerainville;48.816;2.623;;;enseigne inconnue | correspondance OpenStreetMap ambigue;n104 la francilienne - aire pre de l'aulnes et de la gde mar|77340|émerainville;TotalEnergies;complete_auto_banco;"reference_prix_carburants; osm=node/10064564850; distance=0m"
32100001;;a_completer;;33 Avenue des Pyrénées;32100;Condom;43.948;0.372;;;enseigne inconnue | adresse BAN eloignee des coordonnees | correspondance OpenStreetMap ambigue;33 avenue des pyrénées|32100|condom;Total;complete_auto_banco;"reference_prix_carburants; osm=node/25212865; distance=0m"
11160002;Independent;a_completer;;ZA les Terres Rouges - avenue du Minervois;11160;Villeneuve-Minervois;43.314;2.47;OpenStreetMap;node/2026821625;;za les terres rouges - avenue du minervois|11160|villeneuve-minervois;Independent;complete_auto_banco;"reference_prix_carburants; osm=node/2026821625; distance=0m"
20156001;;a_completer;;PORTO POLLO;20156;Serra-di-Ferro;41.70911;8.7926;;;enseigne inconnue | adresse BAN eloignee des coordonnees | aucune station OpenStreetMap proche;porto pollo|20156|serra-di-ferro;Vito;complete_auto_banco;"reference_prix_carburants; osm=way/70692741; distance=0m"
13680007;;a_completer;;AUTOROUTE A7 - AIRE DE LANÇON EST;13680;Lançon-Provence;43.598904;5.159049;;;enseigne inconnue | adresse BAN eloignee des coordonnees | aucune station OpenStreetMap proche;autoroute a7 - aire de lançon est|13680|lançon-provence;TotalEnergies;complete_auto_banco;"reference_prix_carburants; osm=node/7227060568; distance=0m"
5200004;;a_completer;;359 Route des portes du lac Route Nationale 94;05200;Baratier;44.538;6.497;;;enseigne inconnue | adresse BAN eloignee des coordonnees | aucune station OpenStreetMap proche;359 route des portes du lac route nationale 94|05200|baratier;Intermarché;complete_auto_banco;"reference_prix_carburants; osm=node/2186826033; distance=0m"
59240002;;a_completer;;Boulevard de l'Europe;59240;Dunkerque;51.05;2.414;;;enseigne inconnue | correspondance OpenStreetMap ambigue;boulevard de l'europe|59240|dunkerque;Carrefour;complete_auto_banco;"reference_prix_carburants; osm=way/76397926; distance=0m"
11620001;;a_completer;;Lieu dit La Viala;11620;Villemoustaussou;43.252;2.361;;;enseigne inconnue | adresse BAN eloignee des coordonnees | correspondance OpenStreetMap ambigue;lieu dit la viala|11620|villemoustaussou;Dyneff;complete_auto_banco;"reference_prix_carburants; osm=node/25209206; distance=0m"
23600001;U;a_completer;;avenue de bourbonnais;23600;Boussac;46.35;2.215;OpenStreetMap;way/189690918;correspondance OpenStreetMap ambigue;avenue de bourbonnais|23600|boussac;Carrefour Market;complete_auto_banco;"reference_prix_carburants; osm=node/1865681998; distance=0m"
76850001;;a_completer;;RUE DES FORGES;76850;Bosc-le-Hard;49.631;1.18;;;enseigne inconnue | correspondance OpenStreetMap ambigue;rue des forges|76850|bosc-le-hard;Carrefour;complete_auto_banco;"reference_prix_carburants; osm=node/4769778286; distance=0m"
89130001;;a_completer;;Rue de la Chatterie;89130;Dracy;47.762;3.254;;;enseigne inconnue | adresse BAN eloignee des coordonnees | aucune station OpenStreetMap proche;rue de la chatterie|89130|dracy;bi1;complete_auto_banco;"reference_prix_carburants; osm=node/2888590567; distance=0m"
26300010;;a_completer;;Route du Stade;26300;Chatuzange-le-Goubet;45.0;5.089;;;enseigne inconnue | correspondance OpenStreetMap ambigue;route du stade|26300|chatuzange-le-goubet;Système U;complete_auto_banco;"reference_prix_carburants; osm=node/5583203293; distance=0m"
47160002;U;a_completer;;13 AVENUE DES LANDES;47160;Damazan;44.28798;0.272237;OpenStreetMap;node/13882728119;;13 avenue des landes|47160|damazan;;;
56120004;U;a_completer;;Espace Commercial Oxygène;56120;Josselin;47.964;-2.545;OpenStreetMap;way/1120167787;adresse BAN eloignee des coordonnees | correspondance OpenStreetMap ambigue;espace commercial oxygène|56120|josselin;Super U;complete_auto_banco;"reference_prix_carburants; osm=way/512845404; distance=0m"
42370001;;a_completer;;1500 route de renaison;42370;Saint-Haon-le-Châtel;46.063;3.92;;;enseigne inconnue | adresse BAN eloignee des coordonnees | correspondance OpenStreetMap ambigue;1500 route de renaison|42370|saint-haon-le-châtel;Avia;complete_auto_banco;"reference_prix_carburants; osm=way/583473539; distance=0m"
41190002;;a_completer;;Zone Commerciale de la Valstière;41190;Herbault;47.605;1.14;;;enseigne inconnue | adresse BAN eloignee des coordonnees | aucune station OpenStreetMap proche;zone commerciale de la valstière|41190|herbault;Intermarché;complete_auto_banco;"reference_prix_carburants; osm=way/339975957; distance=0m"
30800002;;a_completer;;ROUTE D'ARLES;30800;Saint-Gilles;43.677;4.432;;;enseigne inconnue | adresse BAN eloignee des coordonnees | aucune station OpenStreetMap proche;route d'arles|30800|saint-gilles;Intermarché;complete_auto_banco;"reference_prix_carburants; osm=node/2401825325; distance=0m"
74910003;;a_completer;;Route de Genève;74910;Seyssel;45.96065;5.83663;;;enseigne inconnue | correspondance OpenStreetMap ambigue;route de genève|74910|seyssel;Carrefour;complete_auto_banco;"reference_prix_carburants; osm=way/315532199; distance=0m"
34250003;;a_completer;;PONT DES 4 CANAUX - RD 986;34250;Palavas-les-Flots;43.529;3.931;;;enseigne inconnue | adresse BAN eloignee des coordonnees | aucune station OpenStreetMap proche;pont des 4 canaux - rd 986|34250|palavas-les-flots;Total;complete_auto_banco;"reference_prix_carburants; osm=node/3352378692; distance=0m"
89200009;;a_completer;;AVENUE DE LA MORLANDE;89200;Avallon;47.491;3.902;;;enseigne inconnue | correspondance OpenStreetMap ambigue;avenue de la morlande|89200|avallon;Intermarché;complete_auto_banco;"reference_prix_carburants; osm=node/3148824161; distance=0m"
86190001;;a_completer;;ZAE DE VAUGENDRON;86190;Vouillé;46.642;0.172;;;enseigne inconnue | correspondance OpenStreetMap ambigue;zae de vaugendron|86190|vouillé;Super U;complete_auto_banco;"reference_prix_carburants; osm=way/63516184; distance=0m"
50570002;;a_completer;;RUE DE LA CHAPONIERE;50570;Marigny-Le-Lozon;49.09916;-1.24241;;;enseigne inconnue | adresse BAN eloignee des coordonnees | correspondance OpenStreetMap ambigue;rue de la chaponiere|50570|marigny-le-lozon;Carrefour;complete_auto_banco;"reference_prix_carburants; osm=way/502051024; distance=0m"
37190003;;a_completer;;aire des Jardins de Villandry A85;37190;Druye;47.307;0.536;;;enseigne inconnue | adresse BAN eloignee des coordonnees | aucune station OpenStreetMap proche;aire des jardins de villandry a85|37190|druye;Avia;complete_auto_banco;"reference_prix_carburants; osm=way/522825699; distance=0m"
2230002;;a_completer;;1000 rue jean jaures;02230;Fresnoy-le-Grand;49.958;3.43;;;enseigne inconnue | adresse BAN eloignee des coordonnees | correspondance OpenStreetMap ambigue;1000 rue jean jaures|02230|fresnoy-le-grand;Carrefour Market;complete_auto_banco;"reference_prix_carburants; osm=node/1795372107; distance=0m"
47450002;;a_completer;;70 route de bibes;47450;Colayrac-Saint-Cirq;44.22087;0.57989;;;enseigne inconnue | adresse BAN eloignee des coordonnees | correspondance OpenStreetMap ambigue;70 route de bibes|47450|colayrac-saint-cirq;Intermarché;complete_auto_banco;"reference_prix_carburants; osm=way/188612219; distance=0m"
60290003;;a_completer;;Route de Mouy;60290;Cauffry;49.322;2.437;;;enseigne inconnue | correspondance OpenStreetMap ambigue;route de mouy|60290|cauffry;Intermarché;complete_auto_banco;"reference_prix_carburants; osm=node/1197072156; distance=0m"
13400002;;a_completer;;CAMP MAJOR;13400;Aubagne;43.289;5.541;;;enseigne inconnue | adresse BAN eloignee des coordonnees | correspondance OpenStreetMap ambigue;camp major|13400|aubagne;Total;complete_auto_banco;"reference_prix_carburants; osm=way/589191526; distance=0m"
62850001;;a_completer;;Rue de Courtebourne;62850;Licques;50.79;1.951;;;enseigne inconnue | correspondance OpenStreetMap ambigue;rue de courtebourne|62850|licques;Carrefour Contact;complete_auto_banco;"reference_prix_carburants; osm=node/2925911432; distance=0m"
20167010;;a_completer;Avia;N194 Route de Mezzavia;20167;Ajaccio;41.95;8.769;;;enseigne inconnue | adresse BAN eloignee des coordonnees | correspondance OpenStreetMap ambigue;n194 route de mezzavia|20167|ajaccio;Vito;complete_auto_banco;"reference_prix_carburants; osm=node/6147790994; distance=0m"
7270001;;a_completer;;ZI La Sumène;07270;Lamastre;44.982;4.569;;;enseigne inconnue | adresse BAN eloignee des coordonnees | aucune station OpenStreetMap proche;zi la sumène|07270|lamastre;Système U;complete_auto_banco;"reference_prix_carburants; osm=node/5555931218; distance=0m"
40260002;;a_completer;;Aire de l'Océan EST;40260;Lesperon;43.937;-1.087;;;enseigne inconnue | adresse BAN eloignee des coordonnees | correspondance OpenStreetMap ambigue;aire de l'océan est|40260|lesperon;Shell;complete_auto_banco;"reference_prix_carburants; osm=way/1380916911; distance=0m"
69490001;;a_completer;;RN 7;69490;Vindry-sur-Turdine;45.880271;4.472464;;;enseigne inconnue | adresse BAN eloignee des coordonnees | correspondance OpenStreetMap ambigue;rn 7|69490|vindry-sur-turdine;E.Leclerc;complete_auto_banco;"reference_prix_carburants; osm=way/233683355; distance=0m"
63430006;U;a_completer;;24 Avenue de Lyon;63430;Pont-du-Château;45.7911596;3.2621022;OpenStreetMap;way/107564340;;24 avenue de lyon|63430|pont-du-château;U;complete_auto_banco;"reference_prix_carburants; osm=way/107564340; distance=0m"
84310002;;a_completer;;28 Chemin du Clos Neuf;84310;Morières-lès-Avignon;43.94345;4.90789;;;enseigne inconnue | aucune station OpenStreetMap proche;28 chemin du clos neuf|84310|morières-lès-avignon;E.Leclerc;complete_auto_banco;"reference_prix_carburants; osm=way/91449191; distance=0m"
73320002;;a_completer;;Lieu-dit Les Chartreux;73320;Tignes;45.46061;6.90144;;;enseigne inconnue | aucune station OpenStreetMap proche;lieu-dit les chartreux|73320|tignes;Avia;complete_auto_banco;"reference_prix_carburants; osm=node/5586847006; distance=0m"
76200004;;a_completer;;AVENUE DES CANADIENS;76200;Dieppe;49.90522;1.07678;;;enseigne inconnue | adresse BAN eloignee des coordonnees | correspondance OpenStreetMap ambigue;avenue des canadiens|76200|dieppe;Total Access;complete_auto_banco;"reference_prix_carburants; osm=node/10692000037; distance=0m"
35270001;U;a_completer;;7 AV. DES ERABLES;35270;Combourg;48.412399;-1.746216;OpenStreetMap;way/1305080955;;7 av. des erables|35270|combourg;U;complete_auto_banco;"reference_prix_carburants; osm=way/1305080955; distance=0m"
56700003;;a_completer;;KERNOUS;56700;;47.765;-3.302;;;enseigne inconnue | adresse BAN eloignee des coordonnees | aucune station OpenStreetMap proche;kernous|56700|;Total;complete_auto_banco;"reference_prix_carburants; osm=node/1477615535; distance=0m"
34070004;;a_completer;;Avenue Villeneuve d'Angoulême;34070;Montpellier;43.592;3.867;;;enseigne inconnue | correspondance OpenStreetMap ambigue;avenue villeneuve d'angoulême|34070|montpellier;Auchan;complete_auto_banco;"reference_prix_carburants; osm=way/75752597; distance=0m"
20600003;;a_completer;;RN 193;20600;Furiani;42.658;9.416;;;enseigne inconnue | adresse BAN eloignee des coordonnees | aucune station OpenStreetMap proche;rn 193|20600|furiani;TotalEnergies;complete_auto_banco;"reference_prix_carburants; osm=way/520805729; distance=0m"
47290003;;a_completer;;2 rue du champ de foire;47290;Monbahus;44.548997;0.53641;;;enseigne inconnue | adresse BAN eloignee des coordonnees | correspondance OpenStreetMap ambigue;2 rue du champ de foire|47290|monbahus;Aire C;complete_auto_banco;"reference_prix_carburants; osm=node/8088583494; distance=0m"
29100004;;a_completer;;zone du DREVERS;29100;Douarnenez;48.082;-4.317;;;enseigne inconnue | adresse BAN eloignee des coordonnees | aucune station OpenStreetMap proche;zone du drevers|29100|douarnenez;Intermarché;complete_auto_banco;"reference_prix_carburants; osm=node/6145013647; distance=0m"
56700006;;a_completer;;5 Rue de la Madeleine;56700;Merlevenez;47.736;-3.232;;;enseigne inconnue | correspondance OpenStreetMap ambigue;5 rue de la madeleine|56700|merlevenez;Intermarché;complete_auto_banco;"reference_prix_carburants; osm=node/3242417678; distance=0m"
83550004;;a_completer;;Boulevard des Vallons;83550;Vidauban;43.428;6.442;;;enseigne inconnue | adresse BAN eloignee des coordonnees | correspondance OpenStreetMap ambigue;boulevard des vallons|83550|vidauban;Intermarché;complete_auto_banco;"reference_prix_carburants; osm=way/264173129; distance=0m"
13700009;;a_completer;;AUTOROUTE A55 - AIRE GIGNAC SUD LA NERTHE;13180;Le Rove;43.388;5.245;;;enseigne inconnue | adresse BAN eloignee des coordonnees | aucune station OpenStreetMap proche;autoroute a55 - aire gignac sud la nerthe|13180|le rove;Total Access;complete_auto_banco;"reference_prix_carburants; osm=way/22930715; distance=0m"
82600003;;a_completer;;Lieu-dit Escoula;82600;Verdun-sur-Garonne;43.83852;1.23942;;;enseigne inconnue | adresse BAN eloignee des coordonnees | correspondance OpenStreetMap ambigue;lieu-dit escoula|82600|verdun-sur-garonne;Intermarché;complete_auto_banco;"reference_prix_carburants; osm=node/1943232339; distance=0m"
56230003;;a_completer;;Route de la Gare;56230;Questembert;47.6821;-2.44896;;;enseigne inconnue | aucune station OpenStreetMap proche;route de la gare|56230|questembert;Intermarché;complete_auto_banco;"reference_prix_carburants; osm=way/177437184; distance=0m"
57260003;Independent;a_completer;;18 Avenue Foch;57260;Dieuze;48.812;6.715;OpenStreetMap;node/3284968873;correspondance OpenStreetMap ambigue;18 avenue foch|57260|dieuze;Avia;complete_auto_banco;"reference_prix_carburants; osm=node/4888387104; distance=0m"
40550001;;a_completer;;Route des Lacs;40550;Saint-Michel-Escalus;43.8867;-1.29501;;;enseigne inconnue | adresse BAN eloignee des coordonnees | aucune station OpenStreetMap proche;route des lacs|40550|saint-michel-escalus;Carrefour Market;complete_auto_banco;"reference_prix_carburants; osm=node/1840905644; distance=0m"
51500003;;a_completer;;2 route de Chalons;51500;Sillery;49.19134;4.14837;;;enseigne inconnue | adresse BAN eloignee des coordonnees | aucune station OpenStreetMap proche;2 route de chalons|51500|sillery;Intermarché;complete_auto_banco;"reference_prix_carburants; osm=way/320294055; distance=0m"
82160002;;a_completer;;Z.A. le Chirou;82160;Caylus;44.2314;1.75828;;;enseigne inconnue | correspondance OpenStreetMap ambigue;z.a. le chirou|82160|caylus;Le Relais du Causse;complete_auto_banco;"reference_prix_carburants; osm=node/4063030997; distance=0m"
49230002;;a_completer;;place saint maurice;49230;Vallet;47.155;-1.21;;;enseigne inconnue | adresse BAN eloignee des coordonnees | aucune station OpenStreetMap proche;place saint maurice|49230|vallet;Carrefour;complete_auto_banco;"reference_prix_carburants; osm=node/1710620550; distance=0m"
29600003;;a_completer;;Clos Saint-Fiacre;29600;Plourin-lès-Morlaix;48.558;-3.824;;;enseigne inconnue | correspondance OpenStreetMap ambigue;clos saint-fiacre|29600|plourin-lès-morlaix;Intermarché;complete_auto_banco;"reference_prix_carburants; osm=way/84520735; distance=0m"
29290003;;a_completer;;rue du Pont de bois;29280;Locmaria-Plouzané;48.37506;-4.64481;;;enseigne inconnue | adresse BAN eloignee des coordonnees | aucune station OpenStreetMap proche;rue du pont de bois|29280|locmaria-plouzané;Carrefour;complete_auto_banco;"reference_prix_carburants; osm=node/1848473838; distance=0m"
68500003;U;a_completer;;Rue du 17 Novembre;68500;Guebwiller;47.9159169;7.2065336;OpenStreetMap;way/838954972;;rue du 17 novembre|68500|guebwiller;U;complete_auto_banco;"reference_prix_carburants; osm=way/838954972; distance=0m"
66420001;;a_completer;;BOULEVARD DU 14 JUILLET;66420;Le Barcarès;42.78737;3.0349;;;enseigne inconnue | correspondance OpenStreetMap ambigue;boulevard du 14 juillet|66420|le barcarès;Montaner et Fils;complete_auto_banco;"reference_prix_carburants; osm=way/285268040; distance=0m"
20218007;;a_completer;;RT20;20218;Morosaglia;42.435188;9.299765;;;enseigne inconnue | adresse BAN eloignee des coordonnees | aucune station OpenStreetMap proche;rt20|20218|morosaglia;TotalEnergies;complete_auto_banco;"reference_prix_carburants; osm=node/7178743588; distance=0m"
62910001;;a_completer;;RUE BLEUE MAISON;62910;Éperlecques;50.821;2.196;;;enseigne inconnue | adresse BAN eloignee des coordonnees | correspondance OpenStreetMap ambigue;rue bleue maison|62910|éperlecques;Carrefour;complete_auto_banco;"reference_prix_carburants; osm=node/767101427; distance=0m"
51500002;;a_completer;;RN 51 CHAMPFLEURY;51500;Champfleury;49.2;4.016;;;enseigne inconnue | correspondance OpenStreetMap ambigue;rn 51 champfleury|51500|champfleury;E.Leclerc;complete_auto_banco;"reference_prix_carburants; osm=way/233577113; distance=0m"
4100012;Independent;a_completer;;41 Avenue Saint Lazare;04100;Manosque;43.831048;5.790913;OpenStreetMap;way/89340470;;41 avenue saint lazare|04100|manosque;Christian Atamian;complete_auto_banco;"reference_prix_carburants; osm=way/89340470; distance=0m"
93130007;;a_completer;;Rue de la Chasse;93130;Noisy-le-Sec;48.88;2.457;;;enseigne inconnue | correspondance OpenStreetMap ambigue;rue de la chasse|93130|noisy-le-sec;BP;complete_auto_banco;"reference_prix_carburants; osm=way/26334246; distance=0m"
20166006;;a_completer;;Les Marines de Porticcio - Commune de Grosseto-Prugna;20166;Grosseto-Prugna;41.8873;8.8077;;;enseigne inconnue | correspondance OpenStreetMap ambigue;les marines de porticcio - commune de grosseto-prugna|20166|grosseto-prugna;Total;complete_auto_banco;"reference_prix_carburants; osm=node/6147774392; distance=0m"
45520003;;a_completer;;AUTOROUTE A10 - AIRE D'ORLÉANS-SARAN;45520;Gidy;47.98;1.856;;;enseigne inconnue | adresse BAN eloignee des coordonnees | correspondance OpenStreetMap ambigue;autoroute a10 - aire d'orléans-saran|45520|gidy;TotalEnergies;complete_auto_banco;"reference_prix_carburants; osm=node/25210988; distance=0m"
28300004;;a_completer;;Rue Gambetta;28300;Mainvilliers;48.454;1.465;;;enseigne inconnue | correspondance OpenStreetMap ambigue;rue gambetta|28300|mainvilliers;Intermarché;complete_auto_banco;"reference_prix_carburants; osm=way/137140526; distance=0m"
47300001;;a_completer;;Route de Bordeaux;47300;Bias;44.404;0.669;;;enseigne inconnue | adresse BAN eloignee des coordonnees | aucune station OpenStreetMap proche;route de bordeaux|47300|bias;Auchan;complete_auto_banco;"reference_prix_carburants; osm=node/25210922; distance=0m"
15320001;;a_completer;;LE BOURG;15320;Ruynes-en-Margeride;45.001;3.224;;;enseigne inconnue | adresse BAN eloignee des coordonnees | correspondance OpenStreetMap ambigue;le bourg|15320|ruynes-en-margeride;Orceyre Carburants;complete_auto_banco;"reference_prix_carburants; osm=node/5575269625; distance=0m"
2400007;;a_completer;;ZC LA MOISERIE ROUTE DE SOISSONS;02400;Château-Thierry;49.055316;3.399166;;;enseigne inconnue | adresse BAN eloignee des coordonnees | aucune station OpenStreetMap proche;zc la moiserie route de soissons|02400|château-thierry;Netto;complete_auto_banco;"reference_prix_carburants; osm=way/159770062; distance=0m"
17600005;;a_completer;;LE CHAMP DE DEVANT;17600;Corme-Royal;45.746258;-0.812486;;;enseigne inconnue | adresse BAN eloignee des coordonnees | aucune station OpenStreetMap proche;le champ de devant|17600|corme-royal;Avia;complete_auto_banco;"reference_prix_carburants; osm=node/9596999773; distance=0m"
20620005;;a_completer;;RN 193;20620;Biguglia;42.621;9.437;;;enseigne inconnue | adresse BAN eloignee des coordonnees | correspondance OpenStreetMap ambigue;rn 193|20620|biguglia;Vito;complete_auto_banco;"reference_prix_carburants; osm=way/242990998; distance=0m"
38110001;;a_completer;;Avenue de Savoie;38110;Saint-Clair-de-la-Tour;45.573;5.472;;;enseigne inconnue | adresse BAN eloignee des coordonnees | aucune station OpenStreetMap proche;avenue de savoie|38110|saint-clair-de-la-tour;Carrefour;complete_auto_banco;"reference_prix_carburants; osm=way/65386486; distance=0m"
72200001;;a_completer;;ROUTE DES MOLLANS;72200;La Flèche;47.701;-0.094;;;enseigne inconnue | adresse BAN eloignee des coordonnees | correspondance OpenStreetMap ambigue;route des mollans|72200|la flèche;Carrefour;complete_auto_banco;"reference_prix_carburants; osm=node/1827086824; distance=0m"
87440001;;a_completer;;Route de Rochechouart;87440;Saint-Mathieu;45.71;0.763;;;enseigne inconnue | adresse BAN eloignee des coordonnees | correspondance OpenStreetMap ambigue;route de rochechouart|87440|saint-mathieu;Casino;complete_auto_banco;"reference_prix_carburants; osm=node/4296625940; distance=0m"
7000003;Station Service;a_completer;;635 ROUTE D'AUBENAS;07000;Veyras;44.729;4.569;OpenStreetMap;node/25214091;adresse BAN eloignee des coordonnees;635 route d'aubenas|07000|veyras;Eni;complete_auto_banco;"reference_prix_carburants; osm=node/25214091; distance=0m"
54540003;Independent;a_completer;E.Leclerc;26 avenue de la Division Leclerc;54540;Badonviller;48.498;6.886;OpenStreetMap;node/12780098920;;26 avenue de la division leclerc|54540|badonviller;SAS Guenaire;complete_auto_banco;"reference_prix_carburants; osm=node/12780098920; distance=0m"
91490004;;a_completer;;ZA LE CHENET;91490;Milly-la-Forêt;48.399;2.437;;;enseigne inconnue | adresse BAN eloignee des coordonnees | aucune station OpenStreetMap proche;za le chenet|91490|milly-la-forêt;Carrefour;complete_auto_banco;"reference_prix_carburants; osm=node/243201307; distance=0m"
6500005;;a_completer;;45 AV DE ST ROMAN;06500;Menton;43.805;7.487;;;enseigne inconnue | adresse BAN eloignee des coordonnees | aucune station OpenStreetMap proche;45 av de st roman|06500|menton;Intermarché;complete_auto_banco;"reference_prix_carburants; osm=node/3341982425; distance=0m"
63670002;;a_completer;;LIEUDIT CHATEAUGAY;63670;La Roche-Blanche;45.705;3.13;;;enseigne inconnue | adresse BAN eloignee des coordonnees | aucune station OpenStreetMap proche;lieudit chateaugay|63670|la roche-blanche;Intermarché;complete_auto_banco;"reference_prix_carburants; osm=way/148957380; distance=0m"
19000006;;a_completer;;2 QUAI CONTINSOUZA;19000;Tulle;45.272189;1.775877;;;enseigne inconnue | correspondance OpenStreetMap ambigue;2 quai continsouza|19000|tulle;Intermarché;complete_auto_banco;"reference_prix_carburants; osm=node/1583695882; distance=0m"
56220003;;a_completer;;PA de la Chaussée;56220;Malansac;47.678;-2.295;;;enseigne inconnue | adresse BAN eloignee des coordonnees | aucune station OpenStreetMap proche;pa de la chaussée|56220|malansac;Super U;complete_auto_banco;"reference_prix_carburants; osm=way/250538009; distance=0m"
88500001;;a_completer;;23 Rue du pré Paradis;88500;Poussay;48.303;6.119;;;enseigne inconnue | adresse BAN eloignee des coordonnees | aucune station OpenStreetMap proche;23 rue du pré paradis|88500|poussay;Carrefour;complete_auto_banco;"reference_prix_carburants; osm=way/337646253; distance=0m"
89200002;;a_completer;;RUE DE LA GOULOTTE;89200;Avallon;47.49;3.9;;;enseigne inconnue | adresse BAN eloignee des coordonnees | correspondance OpenStreetMap ambigue;rue de la goulotte|89200|avallon;Avia;complete_auto_banco;"reference_prix_carburants; osm=way/74906736; distance=0m"
92800007;;a_completer;;Quai de Dion-Bouton;92800;Puteaux;48.88;2.245;;;enseigne inconnue | correspondance OpenStreetMap ambigue;quai de dion-bouton|92800|puteaux;Esso;complete_auto_banco;"reference_prix_carburants; osm=way/432849877; distance=0m"
40270004;;a_completer;;2 Avenue de Mont de Marsan;40270;Grenade-sur-l'Adour;43.774;-0.432;;;enseigne inconnue | correspondance OpenStreetMap ambigue;2 avenue de mont de marsan|40270|grenade-sur-l'adour;Carrefour;complete_auto_banco;"reference_prix_carburants; osm=way/200769922; distance=0m"
62510003;;a_completer;;Rue bernard CHOCHOY;62510;Arques;50.727;2.3;;;enseigne inconnue | adresse BAN eloignee des coordonnees | correspondance OpenStreetMap ambigue;rue bernard chochoy|62510|arques;Intermarché;complete_auto_banco;"reference_prix_carburants; osm=way/761020056; distance=0m"
14680001;;a_completer;;VARENDES;14680;Bretteville-sur-Laize;49.045;-0.324;;;enseigne inconnue | adresse BAN eloignee des coordonnees | aucune station OpenStreetMap proche;varendes|14680|bretteville-sur-laize;Carrefour;complete_auto_banco;"reference_prix_carburants; osm=node/5563713231; distance=0m"
31350002;;a_completer;;ROUTE DE ST GAUDENS;31350;Boulogne-sur-Gesse;43.28438;0.66086;;;enseigne inconnue | adresse BAN eloignee des coordonnees | correspondance OpenStreetMap ambigue;route de st gaudens|31350|boulogne-sur-gesse;Intermarché;complete_auto_banco;"reference_prix_carburants; osm=node/6148058279; distance=0m"
50600003;;a_completer;;LA VERTE CAMPAGNE;50600;Saint-Hilaire-du-Harcouët;48.576;-1.088;;;enseigne inconnue | adresse BAN eloignee des coordonnees | correspondance OpenStreetMap ambigue;la verte campagne|50600|saint-hilaire-du-harcouët;Total;complete_auto_banco;"reference_prix_carburants; osm=node/5563713246; distance=0m"
83170009;;a_completer;;Quartier Le LAOU;83170;Tourves;43.409;5.922;;;enseigne inconnue | adresse BAN eloignee des coordonnees | aucune station OpenStreetMap proche;quartier le laou|83170|tourves;Dyneff;complete_auto_banco;"reference_prix_carburants; osm=node/4732280345; distance=0m"
77510001;;a_completer;;ZAC PRE ANCEL;77510;Rebais;48.84615;3.23114;;;enseigne inconnue | adresse BAN eloignee des coordonnees | aucune station OpenStreetMap proche;zac pre ancel|77510|rebais;Carrefour;complete_auto_banco;"reference_prix_carburants; osm=node/4998399538; distance=0m"
6250012;;a_completer;;AUTOROUTE A8 - AIRE DES BREGUIÈRES;06250;Mougins;43.593875;7.035736;;;enseigne inconnue | adresse BAN eloignee des coordonnees | correspondance OpenStreetMap ambigue;autoroute a8 - aire des breguières|06250|mougins;;;
56500004;;a_completer;;Rue du Chanoine Martin;56500;Pleugriffet;47.99;-2.708;;;enseigne inconnue | adresse BAN eloignee des coordonnees | aucune station OpenStreetMap proche;rue du chanoine martin|56500|pleugriffet;Intermarché;complete_auto_banco;"reference_prix_carburants; osm=node/5562610280; distance=0m"
89200008;;a_completer;;6 Rue de Lyon;89200;Avallon;47.491;3.912;;;enseigne inconnue | aucune station OpenStreetMap proche;6 rue de lyon|89200|avallon;Avia;complete_auto_banco;"reference_prix_carburants; osm=node/25178086; distance=0m"
68550001;;a_completer;;1 Rue de l'Industrie;68550;Saint-Amarin;47.874;7.022;;;enseigne inconnue | correspondance OpenStreetMap ambigue;1 rue de l'industrie|68550|saint-amarin;Auchan;complete_auto_banco;"reference_prix_carburants; osm=node/4786809372; distance=0m"
76740002;;a_completer;;HAMEAU DU BUQUET;76740;La Gaillarde;49.833;0.906;;;enseigne inconnue | adresse BAN eloignee des coordonnees | correspondance OpenStreetMap ambigue;hameau du buquet|76740|la gaillarde;Intermarché;complete_auto_banco;"reference_prix_carburants; osm=way/285018548; distance=0m"
27320001;;a_completer;;LA POTINIERE;27320;Nonancourt;48.77;1.202;;;enseigne inconnue | adresse BAN eloignee des coordonnees | correspondance OpenStreetMap ambigue;la potiniere|27320|nonancourt;Carrefour Market;complete_auto_banco;"reference_prix_carburants; osm=node/6808317601; distance=0m"
82110002;;a_completer;;TRAVERS DE CAZES;82110;Cazes-Mondenard;44.235;1.207;;;enseigne inconnue | adresse BAN eloignee des coordonnees | correspondance OpenStreetMap ambigue;travers de cazes|82110|cazes-mondenard;Aire C;complete_auto_banco;"reference_prix_carburants; osm=node/4468706387; distance=0m"
66420002;;a_completer;;Boulevard du 14 Juillet;66420;Le Barcarès;42.787;3.035;;;enseigne inconnue | correspondance OpenStreetMap ambigue;boulevard du 14 juillet|66420|le barcarès;Système U;complete_auto_banco;"reference_prix_carburants; osm=node/6147943715; distance=0m"
21190007;;a_completer;;AUTOROUTE A6 - AIRE DE BEAUNE MERCEUIL;21190;Merceuil;46.95888;4.83532;;;enseigne inconnue | adresse BAN eloignee des coordonnees | correspondance OpenStreetMap ambigue;autoroute a6 - aire de beaune merceuil|21190|merceuil;TotalEnergies;complete_auto_banco;"reference_prix_carburants; osm=node/7414137520; distance=0m"
40220002;;a_completer;;Avenue du 1er Mai;40220;Tarnos;43.549;-1.486;;;enseigne inconnue | adresse BAN eloignee des coordonnees | aucune station OpenStreetMap proche;avenue du 1er mai|40220|tarnos;Dyneff;complete_auto_banco;"reference_prix_carburants; osm=node/4937583455; distance=0m"
29950001;;a_completer;;Domaine de Penfoul Bihan;29950;Bénodet;47.882;-4.112;;;enseigne inconnue | adresse BAN eloignee des coordonnees | correspondance OpenStreetMap ambigue;domaine de penfoul bihan|29950|bénodet;Carrefour Market;complete_auto_banco;"reference_prix_carburants; osm=node/401887944; distance=0m"
6210009;;a_completer;;ROUTE NATIONALE 7;06210;Mandelieu-la-Napoule;43.522;6.899;;;enseigne inconnue | adresse BAN eloignee des coordonnees | aucune station OpenStreetMap proche;route nationale 7|06210|mandelieu-la-napoule;BP;complete_auto_banco;"reference_prix_carburants; osm=node/307408460; distance=0m"
59610002;;a_completer;;rue theophile legrand;59610;Wignehies;50.024;4.028;;;enseigne inconnue | adresse BAN eloignee des coordonnees | correspondance OpenStreetMap ambigue;rue theophile legrand|59610|wignehies;Carrefour;complete_auto_banco;"reference_prix_carburants; osm=node/4245040284; distance=0m"
6430001;;a_completer;;Quartier celestrera;06430;Tende;44.087683;7.593722;;;enseigne inconnue | adresse BAN eloignee des coordonnees | aucune station OpenStreetMap proche;quartier celestrera|06430|tende;Avia;complete_auto_banco;"reference_prix_carburants; osm=node/2374358667; distance=0m"
33620003;;a_completer;;1, Garosse Nord;33620;Laruscade;45.107;-0.341;;;enseigne inconnue | adresse BAN eloignee des coordonnees | correspondance OpenStreetMap ambigue;1, garosse nord|33620|laruscade;Carrefour;complete_auto_banco;"reference_prix_carburants; osm=node/3677767095; distance=0m"
91814001;;a_completer;;ROUTE DE VILLOISON;91100;Villabé;48.584;2.444;;;enseigne inconnue | adresse BAN eloignee des coordonnees | correspondance OpenStreetMap ambigue;route de villoison|91100|villabé;Carrefour;complete_auto_banco;"reference_prix_carburants; osm=way/116986623; distance=0m"
30190003;;a_completer;;Avenue Charles de Gaulle;30190;La Calmette;43.92419;4.2639;;;enseigne inconnue | adresse BAN eloignee des coordonnees | correspondance OpenStreetMap ambigue;avenue charles de gaulle|30190|la calmette;Casino;complete_auto_banco;"reference_prix_carburants; osm=node/2394804715; distance=0m"
17130001;;a_completer;;Avenue de la République;17130;Montendre;45.286079;-0.392973;;;enseigne inconnue | adresse BAN eloignee des coordonnees | correspondance OpenStreetMap ambigue;avenue de la république|17130|montendre;Système U;complete_auto_banco;"reference_prix_carburants; osm=way/38192221; distance=0m"
44320007;;a_completer;;CC L'Iliade;44320;Saint-Père-en-Retz;47.206337;-2.044081;;;enseigne inconnue | adresse BAN eloignee des coordonnees | correspondance OpenStreetMap ambigue;cc l'iliade|44320|saint-père-en-retz;U;complete_auto_banco;"reference_prix_carburants; osm=node/5568614884; distance=0m"
21210001;;a_completer;;RUE GRILLOT;21210;Saulieu;47.282;4.237;;;enseigne inconnue | adresse BAN eloignee des coordonnees | correspondance OpenStreetMap ambigue;rue grillot|21210|saulieu;Avia;complete_auto_banco;"reference_prix_carburants; osm=node/5856118741; distance=0m"
78121001;;a_completer;;27 Route Départementale 307;78121;Crespières;48.886552;1.916159;;;enseigne inconnue | adresse BAN eloignee des coordonnees | correspondance OpenStreetMap ambigue;27 route départementale 307|78121|crespières;TotalEnergies;complete_auto_banco;"reference_prix_carburants; osm=node/9440591921; distance=0m"
77220004;;a_completer;;Boulevard Victor Hugo;77220;Gretz-Armainvilliers;48.73913;2.72084;;;enseigne inconnue | correspondance OpenStreetMap ambigue;boulevard victor hugo|77220|gretz-armainvilliers;Intermarché;complete_auto_banco;"reference_prix_carburants; osm=node/966241147; distance=0m"
37390003;;a_completer;;ZAC DE LA GRANDE PIECE;37390;Chanceaux-sur-Choisille;47.47;0.702;;;enseigne inconnue | correspondance OpenStreetMap ambigue;zac de la grande piece|37390|chanceaux-sur-choisille;Super U;complete_auto_banco;"reference_prix_carburants; osm=node/2242495011; distance=0m"
16250001;;a_completer;;AUX NAULETS PEREUIL;16250;Pérignac;45.472713;0.048103;;;enseigne inconnue | adresse BAN eloignee des coordonnees | aucune station OpenStreetMap proche;aux naulets pereuil|16250|pérignac;Carrefour;complete_auto_banco;"reference_prix_carburants; osm=node/5649289019; distance=0m"
22200006;;a_completer;;ROUTE NATIONALE 12 - ROUTE DE SAINT BRIEUC;22970;Ploumagoar;48.557;-3.129;;;enseigne inconnue | adresse BAN eloignee des coordonnees | correspondance OpenStreetMap ambigue;route nationale 12 - route de saint brieuc|22970|ploumagoar;Total Access;complete_auto_banco;"reference_prix_carburants; osm=node/4514404611; distance=0m"
33700002;;a_completer;Eni;AVENUE MARECHAL GALLIENI;33700;Mérignac;44.834;-0.617;;;enseigne inconnue | correspondance OpenStreetMap ambigue;avenue marechal gallieni|33700|mérignac;Simply Market;complete_auto_banco;"reference_prix_carburants; osm=node/8084628920; distance=0m"
83600029;;a_completer;;AVENUE ANDRE LEOTARD;83600;Fréjus;43.436748;6.757294;;;enseigne inconnue | adresse BAN eloignee des coordonnees | correspondance OpenStreetMap ambigue;avenue andre leotard|83600|fréjus;Intermarché;complete_auto_banco;"reference_prix_carburants; osm=way/518950972; distance=0m"
45220001;;a_completer;;Allée de la Gravière;45220;Château-Renard;47.932194;2.923775;;;enseigne inconnue | adresse BAN eloignee des coordonnees | correspondance OpenStreetMap ambigue;allée de la gravière|45220|château-renard;Système U;complete_auto_banco;"reference_prix_carburants; osm=way/241792972; distance=0m"
39400003;;a_completer;;10 Rue de l'Europe;39400;Morbier;46.549;6.016;;;enseigne inconnue | adresse BAN eloignee des coordonnees | correspondance OpenStreetMap ambigue;10 rue de l'europe|39400|morbier;Avia;complete_auto_banco;"reference_prix_carburants; osm=way/97745129; distance=0m"
2130001;;a_completer;;Rue du Stade;02130;Fère-en-Tardenois;49.201;3.511;;;enseigne inconnue | adresse BAN eloignee des coordonnees | correspondance OpenStreetMap ambigue;rue du stade|02130|fère-en-tardenois;Super U;complete_auto_banco;"reference_prix_carburants; osm=way/336034259; distance=0m"
18100017;U;a_completer;;18 avenue du 19 mars 1962;18100;Vierzon;47.239786;2.092047;OpenStreetMap;node/7414465297;;18 avenue du 19 mars 1962|18100|vierzon;U;complete_auto_banco;"reference_prix_carburants; osm=node/7414465297; distance=0m"
6156001;;a_completer;;Z.I. Les Tourrades;06150;Cannes;43.571;6.959;;;enseigne inconnue | adresse BAN eloignee des coordonnees | aucune station OpenStreetMap proche;z.i. les tourrades|06150|cannes;Carrefour Market;complete_auto_banco;"reference_prix_carburants; osm=node/11883490459; distance=0m"
36150004;;a_completer;;A20 AIRE DES CHAMPS D' AMOUR;36150;Reboursin;47.102;1.797;;;enseigne inconnue | adresse BAN eloignee des coordonnees | aucune station OpenStreetMap proche;a20 aire des champs d' amour|36150|reboursin;Esso;complete_auto_banco;"reference_prix_carburants; osm=way/154266090; distance=0m"
60530003;;a_completer;;ZI route de Crouy;60530;Neuilly-en-Thelle;49.229;2.282;;;enseigne inconnue | adresse BAN eloignee des coordonnees | aucune station OpenStreetMap proche;zi route de crouy|60530|neuilly-en-thelle;Carrefour;complete_auto_banco;"reference_prix_carburants; osm=way/251767930; distance=0m"
20166004;;a_completer;Eni;CTRE COMMERCIAL BENISTA;20166;Grosseto-Prugna;41.887;8.808;;;enseigne inconnue | adresse BAN eloignee des coordonnees | correspondance OpenStreetMap ambigue;ctre commercial benista|20166|grosseto-prugna;Vito;complete_auto_banco;"reference_prix_carburants; osm=node/477080051; distance=0m"
59780003;;a_completer;;RD 93 GRANDE RUE;59780;Camphin-en-Pévèle;50.594775;3.257818;;;enseigne inconnue | adresse BAN eloignee des coordonnees | aucune station OpenStreetMap proche;rd 93 grande rue|59780|camphin-en-pévèle;Super U;complete_auto_banco;"reference_prix_carburants; osm=node/9341209470; distance=0m"
86130010;;a_completer;;AUTOROUTE A10;86130;Jaunay-Marigny;46.691;0.355;;;enseigne inconnue | adresse BAN eloignee des coordonnees | aucune station OpenStreetMap proche;autoroute a10|86130|jaunay-marigny;Avia;complete_auto_banco;"reference_prix_carburants; osm=node/25210832; distance=0m"
62134001;;a_completer;;73 RUE D.HESDIN;62134;Anvin;50.447;2.251;;;enseigne inconnue | adresse BAN eloignee des coordonnees | correspondance OpenStreetMap ambigue;73 rue d.hesdin|62134|anvin;Carrefour;complete_auto_banco;"reference_prix_carburants; osm=node/8178981824; distance=0m"
59114003;;a_completer;;144 Route d'Eecke;59114;Steenvoorde;50.8;2.592;;;enseigne inconnue | adresse BAN eloignee des coordonnees | aucune station OpenStreetMap proche;144 route d'eecke|59114|steenvoorde;Super U;complete_auto_banco;"reference_prix_carburants; osm=node/4416174496; distance=0m"
29420001;;a_completer;;Rue de Bel Air;29420;Plouénan;48.628;-3.988;;;enseigne inconnue | adresse BAN eloignee des coordonnees | correspondance OpenStreetMap ambigue;rue de bel air|29420|plouénan;Système U;complete_auto_banco;"reference_prix_carburants; osm=way/72339663; distance=0m"
20145004;;a_completer;;RN T 10;20145;Sari-Solenzara;41.857886;9.364222;;;enseigne inconnue | adresse BAN eloignee des coordonnees | aucune station OpenStreetMap proche;rn t 10|20145|sari-solenzara;TotalEnergies;complete_auto_banco;"reference_prix_carburants; osm=way/1429606198; distance=0m"
14730004;;a_completer;;A13, Aire de Giberville Nord;14730;Giberville;49.168218;-0.281818;;;enseigne inconnue | adresse BAN eloignee des coordonnees | correspondance OpenStreetMap ambigue;a13, aire de giberville nord|14730|giberville;Dyneff;complete_auto_banco;"reference_prix_carburants; osm=node/7350279843; distance=0m"
71260004;;a_completer;;143 rue du four a chaux;71260;Lugny;46.472;4.816;;;enseigne inconnue | correspondance OpenStreetMap ambigue;143 rue du four a chaux|71260|lugny;Total;complete_auto_banco;"reference_prix_carburants; osm=node/3135242220; distance=0m"
31140008;;a_completer;;Route de Béssières;31140;Castelginest;43.69;1.452;;;enseigne inconnue | correspondance OpenStreetMap ambigue;route de béssières|31140|castelginest;Super U;complete_auto_banco;"reference_prix_carburants; osm=node/25213571; distance=0m"
76340005;;a_completer;;RUE DES MARAIS;76340;Blangy-sur-Bresle;49.930638;1.637064;;;enseigne inconnue | adresse BAN eloignee des coordonnees | aucune station OpenStreetMap proche;rue des marais|76340|blangy-sur-bresle;Système U;complete_auto_banco;"reference_prix_carburants; osm=node/7334675388; distance=0m"
13008001;;a_completer;;365 Avenue de Mazargues;13008;Marseille;43.253;5.397;;;enseigne inconnue | adresse BAN eloignee des coordonnees | aucune station OpenStreetMap proche;365 avenue de mazargues|13008|marseille;Casino;complete_auto_banco;"reference_prix_carburants; osm=node/2425875289; distance=0m"
74890001;;a_completer;;ROUTE DE LA SCIERIE;74890;Bons-en-Chablais;46.264;6.37;;;enseigne inconnue | adresse BAN eloignee des coordonnees | aucune station OpenStreetMap proche;route de la scierie|74890|bons-en-chablais;;;
57120005;;a_completer;;RUE DU MUGUET;57120;Rombas;49.25;6.096;;;enseigne inconnue | adresse BAN eloignee des coordonnees | aucune station OpenStreetMap proche;rue du muguet|57120|rombas;E.Leclerc;complete_auto_banco;"reference_prix_carburants; osm=node/4897671239; distance=0m"
13200019;;a_completer;;QUARTIER SUD FOURCHON;13200;Arles;43.662;4.633;;;enseigne inconnue | adresse BAN eloignee des coordonnees | correspondance OpenStreetMap ambigue;quartier sud fourchon|13200|arles;Esso;complete_auto_banco;"reference_prix_carburants; osm=way/102107016; distance=0m"
19340003;;a_completer;;Viaduc du Chavanon;19340;Messeix;45.624;2.481;;;enseigne inconnue | adresse BAN eloignee des coordonnees | aucune station OpenStreetMap proche;viaduc du chavanon|19340|messeix;Avia;complete_auto_banco;"reference_prix_carburants; osm=node/8071870143; distance=0m"
37320001;;a_completer;;ZAE Le Grand Berchenay;37320;Esvres;47.291;0.79;;;enseigne inconnue | adresse BAN eloignee des coordonnees | aucune station OpenStreetMap proche;zae le grand berchenay|37320|esvres;Auchan;complete_auto_banco;"reference_prix_carburants; osm=node/2102929634; distance=0m"
44420003;;a_completer;;rue des artisans;44420;Mesquer;47.397;-2.462;;;enseigne inconnue | adresse BAN eloignee des coordonnees | correspondance OpenStreetMap ambigue;rue des artisans|44420|mesquer;Carrefour;complete_auto_banco;"reference_prix_carburants; osm=way/306824198; distance=0m"
19100009;;a_completer;;Impasse du Pilou;19100;Malemort;45.158;1.563;;;enseigne inconnue | correspondance OpenStreetMap ambigue;impasse du pilou|19100|malemort;Intermarché;complete_auto_banco;"reference_prix_carburants; osm=node/2583754950; distance=0m"
33470003;;a_completer;;Avenue de Bordeaux;33470;Le Teich;44.622;-1.018;;;enseigne inconnue | correspondance OpenStreetMap ambigue;avenue de bordeaux|33470|le teich;Système U;complete_auto_banco;"reference_prix_carburants; osm=node/460899063; distance=0m"
88410001;;a_completer;;rue de La Croix de mission;88410;Monthureux-sur-Saône;48.032;5.978;;;enseigne inconnue | adresse BAN eloignee des coordonnees | correspondance OpenStreetMap ambigue;rue de la croix de mission|88410|monthureux-sur-saône;Carrefour;complete_auto_banco;"reference_prix_carburants; osm=way/1471482415; distance=0m"
71380002;;a_completer;;ZAC CHAMP CHASSY RTE DE DOLE;71380;Châtenoy-en-Bresse;46.792;4.912;;;enseigne inconnue | adresse BAN eloignee des coordonnees | aucune station OpenStreetMap proche;zac champ chassy rte de dole|71380|châtenoy-en-bresse;Netto;complete_auto_banco;"reference_prix_carburants; osm=way/261744491; distance=0m"
68640001;;a_completer;;4 rue de la république;68640;Illtal;47.556;7.307;;;enseigne inconnue | adresse BAN eloignee des coordonnees | correspondance OpenStreetMap ambigue;4 rue de la république|68640|illtal;Intermarché;complete_auto_banco;"reference_prix_carburants; osm=node/4786809373; distance=0m"
51300014;;a_completer;;16 FBG LEON BOURGEOIS;51300;Vitry-le-François;48.72504;4.58843;;;enseigne inconnue | adresse BAN eloignee des coordonnees | correspondance OpenStreetMap ambigue;16 fbg leon bourgeois|51300|vitry-le-françois;Total;complete_auto_banco;"reference_prix_carburants; osm=node/3729356225; distance=0m"
26290009;;a_completer;;RN-7;26290;Donzère;44.429;4.712;;;enseigne inconnue | adresse BAN eloignee des coordonnees | correspondance OpenStreetMap ambigue;rn-7|26290|donzère;Total;complete_auto_banco;"reference_prix_carburants; osm=way/1455506060; distance=0m"
44430004;;a_completer;;Canton de la Haute Landelle, Routes de Nantes;44430;Le Loroux-Bottereau;47.234;-1.367;;;enseigne inconnue | adresse BAN eloignee des coordonnees | correspondance OpenStreetMap ambigue;canton de la haute landelle, routes de nantes|44430|le loroux-bottereau;E.Leclerc;complete_auto_banco;"reference_prix_carburants; osm=node/8021485519; distance=0m"
66650002;;a_completer;;RN 114 ZAC DE LA RECTORIE;66650;Banyuls-sur-Mer;42.48173;3.12928;;;enseigne inconnue | adresse BAN eloignee des coordonnees | aucune station OpenStreetMap proche;rn 114 zac de la rectorie|66650|banyuls-sur-mer;Carrefour;complete_auto_banco;"reference_prix_carburants; osm=node/794653001; distance=0m"
84140006;;a_completer;;950 CRS CARDINAL BERTRAND DE MON;84140;Avignon;43.931;4.874;;;enseigne inconnue | adresse BAN eloignee des coordonnees | correspondance OpenStreetMap ambigue;950 crs cardinal bertrand de mon|84140|avignon;Total;complete_auto_banco;"reference_prix_carburants; osm=node/1113276013; distance=0m"
92120004;;a_completer;;70-74 AV ARISTIDE BRIAND;92120;Le Kremlin-Bicêtre;48.813;2.357;;;enseigne inconnue | adresse BAN eloignee des coordonnees | correspondance OpenStreetMap ambigue;70-74 av aristide briand|92120|le kremlin-bicêtre;BP;complete_auto_banco;"reference_prix_carburants; osm=node/2040281444; distance=0m"
71260007;;a_completer;;AUX TEPPES SOLDATS;71260;Péronne;46.440181;4.81076;;;enseigne inconnue | adresse BAN eloignee des coordonnees | aucune station OpenStreetMap proche;aux teppes soldats|71260|péronne;Intermarché;complete_auto_banco;"reference_prix_carburants; osm=node/5554207535; distance=0m"
91190001;;a_completer;;CHEVRY BELLEVILLE;91190;Gif-sur-Yvette;48.694;2.121;;;enseigne inconnue | adresse BAN eloignee des coordonnees | correspondance OpenStreetMap ambigue;chevry belleville|91190|gif-sur-yvette;Carrefour;complete_auto_banco;"reference_prix_carburants; osm=node/7162473131; distance=0m"
8150002;;a_completer;;103 Avenue Martyrs de la Résistance;08150;Renwez;49.84;4.605;;;enseigne inconnue | adresse BAN eloignee des coordonnees | aucune station OpenStreetMap proche;103 avenue martyrs de la résistance|08150|renwez;Carrefour;complete_auto_banco;"reference_prix_carburants; osm=way/364851450; distance=0m"
56460002;;a_completer;;Zone commerciale du Pont Saint-Pierre;56460;Sérent;47.824;-2.506;;;enseigne inconnue | adresse BAN eloignee des coordonnees | correspondance OpenStreetMap ambigue;zone commerciale du pont saint-pierre|56460|sérent;Intermarché;complete_auto_banco;"reference_prix_carburants; osm=node/5562610279; distance=0m"
14140001;;a_completer;;Route de Lisieux;14140;Livarot-Pays-d'Auge;49.008;0.151;;;enseigne inconnue | adresse BAN eloignee des coordonnees | aucune station OpenStreetMap proche;route de lisieux|14140|livarot-pays-d'auge;Intermarché;complete_auto_banco;"reference_prix_carburants; osm=way/1232430907; distance=0m"
29419001;;a_completer;;Route du Leck;29800;Landerneau;48.466;-4.256;;;enseigne inconnue | adresse BAN eloignee des coordonnees | correspondance OpenStreetMap ambigue;route du leck|29800|landerneau;E.Leclerc;complete_auto_banco;"reference_prix_carburants; osm=way/1267235530; distance=0m"
14310004;;a_completer;;1 Boulevard du 21e siecle les Sauts casris;14310;Villers-Bocage;49.078;-0.645;;;enseigne inconnue | adresse BAN eloignee des coordonnees | correspondance OpenStreetMap ambigue;1 boulevard du 21e siecle les sauts casris|14310|villers-bocage;E.Leclerc;complete_auto_banco;"reference_prix_carburants; osm=node/876063323; distance=0m"
30250003;;a_completer;;Lotissement de la Tuilerie;30250;Villevieille;43.791;4.091;;;enseigne inconnue | adresse BAN eloignee des coordonnees | aucune station OpenStreetMap proche;lotissement de la tuilerie|30250|villevieille;Carrefour;complete_auto_banco;"reference_prix_carburants; osm=node/2262942300; distance=0m"
55120001;;a_completer;;RN 3;55120;Clermont-en-Argonne;49.10483;5.068454;;;enseigne inconnue | adresse BAN eloignee des coordonnees | correspondance OpenStreetMap ambigue;rn 3|55120|clermont-en-argonne;Intermarché;complete_auto_banco;"reference_prix_carburants; osm=node/4980470910; distance=0m"
13170008;Independent;a_completer;;110 Avenue François Mitterand;13170;Les Pennes-Mirabeau;43.381915;5.346606;OpenStreetMap;node/5634792142;;110 avenue françois mitterand|13170|les pennes-mirabeau;Independent;complete_auto_banco;"reference_prix_carburants; osm=node/5634792142; distance=0m"
58000013;;a_completer;;rue Bernard Palissy;58000;Nevers;46.987;3.17;;;enseigne inconnue | correspondance OpenStreetMap ambigue;rue bernard palissy|58000|nevers;Intermarché;complete_auto_banco;"reference_prix_carburants; osm=node/25213971; distance=0m"
43190002;;a_completer;;za de leygat;43190;Tence;45.101;4.321;;;enseigne inconnue | adresse BAN eloignee des coordonnees | aucune station OpenStreetMap proche;za de leygat|43190|tence;3c Carburants;complete_auto_banco;"reference_prix_carburants; osm=node/5555942122; distance=0m"
33260001;;a_completer;;RUE LAGRUA;33260;La Teste-de-Buch;44.641;-1.156;;;enseigne inconnue | correspondance OpenStreetMap ambigue;rue lagrua|33260|la teste-de-buch;Intermarché;complete_auto_banco;"reference_prix_carburants; osm=way/179526776; distance=0m"
43100001;;a_completer;;Route de Clermont;43100;Brioude;45.311;3.375;;;enseigne inconnue | adresse BAN eloignee des coordonnees | correspondance OpenStreetMap ambigue;route de clermont|43100|brioude;Carrefour;complete_auto_banco;"reference_prix_carburants; osm=node/9547793430; distance=0m"
5120003;;a_completer;;RN 94 Lieu-dit Pont la Lame;05120;Saint-Martin-de-Queyrières;44.853;6.582;;;enseigne inconnue | adresse BAN eloignee des coordonnees | aucune station OpenStreetMap proche;rn 94 lieu-dit pont la lame|05120|saint-martin-de-queyrières;E.Leclerc;complete_auto_banco;"reference_prix_carburants; osm=way/745840223; distance=0m"
32100003;;a_completer;;lieu dit hontaut;32100;Condom;43.965;0.367;;;enseigne inconnue | adresse BAN eloignee des coordonnees | aucune station OpenStreetMap proche;lieu dit hontaut|32100|condom;Carrefour;complete_auto_banco;"reference_prix_carburants; osm=way/66626189; distance=0m"
34570001;;a_completer;;AVENUE GENERAL GROLLIER;34570;Pignan;43.58474;3.77903;;;enseigne inconnue | adresse BAN eloignee des coordonnees | correspondance OpenStreetMap ambigue;avenue general grollier|34570|pignan;Total;complete_auto_banco;"reference_prix_carburants; osm=node/4123018727; distance=0m"
7150003;;a_completer;;route Ruoms;07150;Vallon-Pont-d'Arc;44.407;4.394;;;enseigne inconnue | adresse BAN eloignee des coordonnees | correspondance OpenStreetMap ambigue;route ruoms|07150|vallon-pont-d'arc;Intermarché;complete_auto_banco;"reference_prix_carburants; osm=way/373912831; distance=0m"
64121004;;a_completer;;Rue de Fabrèges ZAC du pont long;64121;Serres-Castet;43.376;-0.38;;;enseigne inconnue | adresse BAN eloignee des coordonnees | aucune station OpenStreetMap proche;rue de fabrèges zac du pont long|64121|serres-castet;Intermarché;complete_auto_banco;"reference_prix_carburants; osm=way/63350055; distance=0m"
26110003;;a_completer;;Route d' Orange;26110;Nyons;44.36;5.134;;;enseigne inconnue | adresse BAN eloignee des coordonnees | correspondance OpenStreetMap ambigue;route d' orange|26110|nyons;Independent;complete_auto_banco;"reference_prix_carburants; osm=way/72895159; distance=0m"
30160001;;a_completer;;Rue du Docteur Paul Vermale;30160;Bessèges;44.29233;4.0934;;;enseigne inconnue | adresse BAN eloignee des coordonnees | aucune station OpenStreetMap proche;rue du docteur paul vermale|30160|bessèges;Carrefour;complete_auto_banco;"reference_prix_carburants; osm=way/39017128; distance=0m"
65300002;;a_completer;;CENTRE COMMERCIAL LA RAMONDIA;65300;Lannemezan;43.098;0.399;;;enseigne inconnue | adresse BAN eloignee des coordonnees | aucune station OpenStreetMap proche;centre commercial la ramondia|65300|lannemezan;Carrefour;complete_auto_banco;"reference_prix_carburants; osm=way/157677039; distance=0m"
33910001;;a_completer;Eni;32 Route de Lussac;33910;Saint-Denis-de-Pile;44.99257;-0.20126;;;enseigne inconnue | aucune station OpenStreetMap proche;32 route de lussac|33910|saint-denis-de-pile;Intermarché;complete_auto_banco;"reference_prix_carburants; osm=node/4831590592; distance=0m"
25500005;;a_completer;;ROUTE DU PRE DES COMBES;25500;Morteau;47.056;6.617;;;enseigne inconnue | adresse BAN eloignee des coordonnees | correspondance OpenStreetMap ambigue;route du pre des combes|25500|morteau;Intermarché;complete_auto_banco;"reference_prix_carburants; osm=way/525218918; distance=0m"
93320002;;a_completer;;262 AVENUE ARISTIDE BRIAND;93320;Les Pavillons-sous-Bois;48.91;2.51;;;enseigne inconnue | adresse BAN eloignee des coordonnees | correspondance OpenStreetMap ambigue;262 avenue aristide briand|93320|les pavillons-sous-bois;Total;complete_auto_banco;"reference_prix_carburants; osm=way/141946333; distance=0m"
91260001;;a_completer;;8 Rue de la Longueraie;91270;Montgeron;48.72;2.442;;;enseigne inconnue | correspondance OpenStreetMap ambigue;8 rue de la longueraie|91270|montgeron;Auchan;complete_auto_banco;"reference_prix_carburants; osm=node/1286700892; distance=0m"
47220002;;a_completer;;Lieu-dit La Garenne;47220;Fals;44.11451;0.70472;;;enseigne inconnue | adresse BAN eloignee des coordonnees | correspondance OpenStreetMap ambigue;lieu-dit la garenne|47220|fals;Val fleuri SARL;complete_auto_banco;"reference_prix_carburants; osm=node/5643604719; distance=0m"
40320002;;a_completer;;Lieudit Lamarque - Route d'Hagetmau;40320;Samadet;43.641402;-0.512068;;;enseigne inconnue | adresse BAN eloignee des coordonnees | aucune station OpenStreetMap proche;lieudit lamarque - route d'hagetmau|40320|samadet;Aire C;complete_auto_banco;"reference_prix_carburants; osm=node/8088714139; distance=0m"
34810001;;a_completer;;2 CHEMIN DU PORTOU;34810;Pomérols;43.391;3.489;;;enseigne inconnue | adresse BAN eloignee des coordonnees | correspondance OpenStreetMap ambigue;2 chemin du portou|34810|pomérols;Super U;complete_auto_banco;"reference_prix_carburants; osm=way/338824000; distance=0m"
45680003;;a_completer;;RUE DE CHATEAU LANDON;45680;Dordives;48.144;2.772;;;enseigne inconnue | adresse BAN eloignee des coordonnees | aucune station OpenStreetMap proche;rue de chateau landon|45680|dordives;Intermarché;complete_auto_banco;"reference_prix_carburants; osm=node/6254074201; distance=0m"
40600004;;a_completer;;Route de Parentis;40600;Biscarrosse;44.3831;-1.14726;;;enseigne inconnue | adresse BAN eloignee des coordonnees | aucune station OpenStreetMap proche;route de parentis|40600|biscarrosse;Système U;complete_auto_banco;"reference_prix_carburants; osm=node/25214478; distance=0m"
15700005;U;a_completer;;RUE DU BOURNAT;15700;Pleaux;45.133465;2.222644;OpenStreetMap;node/1505260332;;rue du bournat|15700|pleaux;U;complete_auto_banco;"reference_prix_carburants; osm=node/1505260332; distance=0m"
8110002;;a_completer;;ZAC DE Wé - 2 avenue de l'Europe;08110;Carignan;49.637;5.162;;;enseigne inconnue | adresse BAN eloignee des coordonnees | aucune station OpenStreetMap proche;zac de wé - 2 avenue de l'europe|08110|carignan;Intermarché;complete_auto_banco;"reference_prix_carburants; osm=node/4983354985; distance=0m"
77820003;;a_completer;;5 rue des Grands Champs;77820;Le Châtelet-en-Brie;48.492;2.796;;;enseigne inconnue | adresse BAN eloignee des coordonnees | aucune station OpenStreetMap proche;5 rue des grands champs|77820|le châtelet-en-brie;E.Leclerc;complete_auto_banco;"reference_prix_carburants; osm=way/320748054; distance=0m"
46130001;;a_completer;;AVENUE DE LA REPUBLIQUE;46130;Prudhomat;44.909;1.821;;;enseigne inconnue | adresse BAN eloignee des coordonnees | aucune station OpenStreetMap proche;avenue de la republique|46130|prudhomat;E.Leclerc;complete_auto_banco;"reference_prix_carburants; osm=way/233731268; distance=0m"
24120010;U;a_completer;;14 avenue victor hugo;24120;Terrasson-Lavilledieu;45.1309027;1.3011241;OpenStreetMap;node/13949539917;;14 avenue victor hugo|24120|terrasson-lavilledieu;;;
29150004;;a_completer;;Grand Rue;29150;Châteaulin;48.196;-4.091;;;enseigne inconnue | correspondance OpenStreetMap ambigue;grand rue|29150|châteaulin;Intermarché;complete_auto_banco;"reference_prix_carburants; osm=node/5868179425; distance=0m"
77124001;;a_completer;;ZAC DES VIGNES;77124;Crégy-lès-Meaux;48.97462;2.87015;;;enseigne inconnue | adresse BAN eloignee des coordonnees | correspondance OpenStreetMap ambigue;zac des vignes|77124|crégy-lès-meaux;Carrefour;complete_auto_banco;"reference_prix_carburants; osm=way/63974008; distance=0m"
89560001;;a_completer;;ROUTE NATIONALE 151;89560;Courson-les-Carrières;47.616;3.497;;;enseigne inconnue | adresse BAN eloignee des coordonnees | correspondance OpenStreetMap ambigue;route nationale 151|89560|courson-les-carrières;Total;complete_auto_banco;"reference_prix_carburants; osm=way/156517376; distance=0m"
22580001;;a_completer;;Le Chene Vert;22580;Plouha;48.691;-2.933;;;enseigne inconnue | adresse BAN eloignee des coordonnees | correspondance OpenStreetMap ambigue;le chene vert|22580|plouha;Carrefour Market;complete_auto_banco;"reference_prix_carburants; osm=way/327874499; distance=0m"
19130002;;a_completer;;AVENUE RAYMOND POINCARE;19130;Objat;45.259;1.413;;;enseigne inconnue | correspondance OpenStreetMap ambigue;avenue raymond poincare|19130|objat;Carrefour;complete_auto_banco;"reference_prix_carburants; osm=node/4686106296; distance=0m"
1400001;;a_completer;;AVENUE MARECHAL FOCH;01400;Châtillon-sur-Chalaronne;46.119;4.961;;;enseigne inconnue | adresse BAN eloignee des coordonnees | correspondance OpenStreetMap ambigue;avenue marechal foch|01400|châtillon-sur-chalaronne;Carrefour;complete_auto_banco;"reference_prix_carburants; osm=node/2004459228; distance=0m"
29170005;;a_completer;;LIEU DIT MANER KER ELO;29170;Fouesnant;47.895;-4.017;;;enseigne inconnue | adresse BAN eloignee des coordonnees | correspondance OpenStreetMap ambigue;lieu dit maner ker elo|29170|fouesnant;Carrefour;complete_auto_banco;"reference_prix_carburants; osm=node/494548842; distance=0m"
71110001;;a_completer;;ZONE ARTISANALE;71110;Marcigny;46.278;4.031;;;enseigne inconnue | adresse BAN eloignee des coordonnees | correspondance OpenStreetMap ambigue;zone artisanale|71110|marcigny;Super U;complete_auto_banco;"reference_prix_carburants; osm=way/262724407; distance=0m"
63350003;Independent;a_completer;;Rond Point Sud-Route de Clermont Ferrand;63350;Maringues;45.912;3.334;OpenStreetMap;node/417809627;adresse BAN eloignee des coordonnees;rond point sud-route de clermont ferrand|63350|maringues;Independent;complete_auto_banco;"reference_prix_carburants; osm=node/417809627; distance=0m"
80590002;;a_completer;;2 et 4 rue du Viaduc;80290;Gauville;49.781;1.792;;;enseigne inconnue | adresse BAN eloignee des coordonnees | aucune station OpenStreetMap proche;2 et 4 rue du viaduc|80290|gauville;Intermarché;complete_auto_banco;"reference_prix_carburants; osm=node/11773698841; distance=0m"
16200003;;a_completer;;Avenue de l'Europe;16200;Jarnac;45.686;-0.165;;;enseigne inconnue | correspondance OpenStreetMap ambigue;avenue de l'europe|16200|jarnac;Intermarché;complete_auto_banco;"reference_prix_carburants; osm=way/842342793; distance=0m"
52300002;;a_completer;;Avenue de Lorraine;52300;Joinville;48.445;5.15;;;enseigne inconnue | correspondance OpenStreetMap ambigue;avenue de lorraine|52300|joinville;Super U;complete_auto_banco;"reference_prix_carburants; osm=way/64904563; distance=0m"
56240003;;a_completer;;Creis Er Prat;56240;Plouay;47.913841;-3.333381;;;enseigne inconnue | adresse BAN eloignee des coordonnees | correspondance OpenStreetMap ambigue;creis er prat|56240|plouay;Carrefour;complete_auto_banco;"reference_prix_carburants; osm=way/97389906; distance=0m"
17440003;;a_completer;;Rue Nicolas Gargot;17440;Aytré;46.1386;-1.13925;;;enseigne inconnue | correspondance OpenStreetMap ambigue;rue nicolas gargot|17440|aytré;Carrefour;complete_auto_banco;"reference_prix_carburants; osm=node/1812326362; distance=0m"
57260001;Independent;a_completer;;105 Impasse Jean Laurain;57260;Dieuze;48.811;6.714;OpenStreetMap;node/3284968873;correspondance OpenStreetMap ambigue;105 impasse jean laurain|57260|dieuze;Independent;complete_auto_banco;"reference_prix_carburants; osm=node/3284968873; distance=0m"
59520001;;a_completer;;Rue Georges Maertens;59520;Saint-André-lez-Lille;50.6633;3.04615;;;enseigne inconnue | adresse BAN eloignee des coordonnees | correspondance OpenStreetMap ambigue;rue georges maertens|59520|saint-andré-lez-lille;Intermarché;complete_auto_banco;"reference_prix_carburants; osm=node/4416273365; distance=0m"
49400004;;a_completer;;ZI EcoparcSaint Lambert des Levées;49400;Saumur;47.277;-0.075;;;enseigne inconnue | adresse BAN eloignee des coordonnees | aucune station OpenStreetMap proche;zi ecoparcsaint lambert des levées|49400|saumur;Intermarché;complete_auto_banco;"reference_prix_carburants; osm=node/25209647; distance=0m"
47500010;U;a_completer;;372 route de périgueux;47500;Fumel;44.492795;0.949165;OpenStreetMap;node/13957850607;;372 route de périgueux|47500|fumel;;;
26200001;;a_completer;;Route de Dieulefit;26200;Montélimar;44.550294;4.775078;;;enseigne inconnue | adresse BAN eloignee des coordonnees | correspondance OpenStreetMap ambigue;route de dieulefit|26200|montélimar;Carrefour Market;complete_auto_banco;"reference_prix_carburants; osm=way/74737445; distance=0m"
34440001;;a_completer;;RN113-9 Lieu dit La Grillade;34440;Colombiers;43.312;3.141;;;enseigne inconnue | aucune station OpenStreetMap proche;rn113-9 lieu dit la grillade|34440|colombiers;Dyneff;complete_auto_banco;"reference_prix_carburants; osm=node/983627546; distance=0m"
76750001;;a_completer;;Route de la Gare;76750;Buchy;49.598;1.342;;;enseigne inconnue | adresse BAN eloignee des coordonnees | aucune station OpenStreetMap proche;route de la gare|76750|buchy;Carrefour;complete_auto_banco;"reference_prix_carburants; osm=node/2672573395; distance=0m"
74360002;;a_completer;;94 Chemin des Vorges;74360;La Chapelle-d'Abondance;46.28;6.819;;;enseigne inconnue | adresse BAN eloignee des coordonnees | correspondance OpenStreetMap ambigue;94 chemin des vorges|74360|la chapelle-d'abondance;Intermarché;complete_auto_banco;"reference_prix_carburants; osm=way/380734477; distance=0m"
40170004;;a_completer;;Route des Lacs;40170;Saint-Julien-en-Born;44.067;-1.228;;;enseigne inconnue | correspondance OpenStreetMap ambigue;route des lacs|40170|saint-julien-en-born;Carrefour;complete_auto_banco;"reference_prix_carburants; osm=node/4822889678; distance=0m"
59380005;;a_completer;;FAUBOURG DE CASSEL RD 916;59380;Socx;50.96273;2.4329;;;enseigne inconnue | adresse BAN eloignee des coordonnees | aucune station OpenStreetMap proche;faubourg de cassel rd 916|59380|socx;Total Access;complete_auto_banco;"reference_prix_carburants; osm=node/3466098638; distance=0m"
17160002;;a_completer;;RUE MAXIME BOURDEAU;17160;Matha;45.87435;-0.31139;;;enseigne inconnue | correspondance OpenStreetMap ambigue;rue maxime bourdeau|17160|matha;Système U;complete_auto_banco;"reference_prix_carburants; osm=way/421802391; distance=0m"
59151003;;a_completer;;15T RTE NATIONALE;59151;Bugnicourt;50.292;3.145;;;enseigne inconnue | adresse BAN eloignee des coordonnees | correspondance OpenStreetMap ambigue;15t rte nationale|59151|bugnicourt;Total Access;complete_auto_banco;"reference_prix_carburants; osm=node/25212589; distance=0m"
84000021;;a_completer;;AVENUE DE L AMANDIER;84000;Avignon;43.935;4.848;;;enseigne inconnue | aucune station OpenStreetMap proche;avenue de l amandier|84000|avignon;Total Access;complete_auto_banco;"reference_prix_carburants; osm=node/11494250388; distance=0m"
45420002;U;a_completer;;ZI LA CHAMPAGNE;45420;Bonny-sur-Loire;47.57234;2.829798;OpenStreetMap;node/472887422;adresse BAN eloignee des coordonnees;zi la champagne|45420|bonny-sur-loire;U;complete_auto_banco;"reference_prix_carburants; osm=node/472887422; distance=0m"
24750002;;a_completer;;Route de Limoges;24750;Trélissac;45.2;0.785;;;enseigne inconnue | adresse BAN eloignee des coordonnees | aucune station OpenStreetMap proche;route de limoges|24750|trélissac;E.Leclerc;complete_auto_banco;"reference_prix_carburants; osm=way/75775996; distance=0m"
30330001;;a_completer;;AVENUE DE LA MAYRE;30200;Bagnols-sur-Cèze;44.157;4.623;;;enseigne inconnue | correspondance OpenStreetMap ambigue;avenue de la mayre|30200|bagnols-sur-cèze;Carrefour Market;complete_auto_banco;"reference_prix_carburants; osm=node/1726229517; distance=0m"
33260011;;a_completer;;Avenue de l'Europe;33260;La Teste-de-Buch;44.618;-1.123;;;enseigne inconnue | adresse BAN eloignee des coordonnees | aucune station OpenStreetMap proche;avenue de l'europe|33260|la teste-de-buch;E.Leclerc;complete_auto_banco;"reference_prix_carburants; osm=node/2697606429; distance=0m"
86220001;;a_completer;;RN10;86220;Dangé-Saint-Romain;46.93511;0.60576;;;enseigne inconnue | adresse BAN eloignee des coordonnees | aucune station OpenStreetMap proche;rn10|86220|dangé-saint-romain;Carrefour;complete_auto_banco;"reference_prix_carburants; osm=node/2441964681; distance=0m"
52800003;;a_completer;;Grande rue;52800;Foulain;48.040018;5.210159;;;enseigne inconnue | adresse BAN eloignee des coordonnees | correspondance OpenStreetMap ambigue;grande rue|52800|foulain;Avia;complete_auto_banco;"reference_prix_carburants; osm=node/9595098135; distance=0m"
3600003;;a_completer;;LA BRANDE MALICORNE;03600;Commentry;46.29151;2.73992;;;enseigne inconnue | adresse BAN eloignee des coordonnees | correspondance OpenStreetMap ambigue;la brande malicorne|03600|commentry;Intermarché;complete_auto_banco;"reference_prix_carburants; osm=way/336798058; distance=0m"
22610001;U;a_completer;;24 Rue de l'Armor;22610;Pleubian;48.844;-3.137;OpenStreetMap;way/249880356;;24 rue de l'armor|22610|pleubian;U;complete_auto_banco;"reference_prix_carburants; osm=way/249880356; distance=0m"
80260001;;a_completer;;Rue du Château d'Eau;80260;Villers-Bocage;50.001;2.316;;;enseigne inconnue | correspondance OpenStreetMap ambigue;rue du château d'eau|80260|villers-bocage;Carrefour;complete_auto_banco;"reference_prix_carburants; osm=node/2831564030; distance=0m"
64120004;;a_completer;;40 Zone d'activité;64120;Saint-Palais;43.327;-1.033;;;enseigne inconnue | adresse BAN eloignee des coordonnees | correspondance OpenStreetMap ambigue;40 zone d'activité|64120|saint-palais;Carrefour;complete_auto_banco;"reference_prix_carburants; osm=way/218231717; distance=0m"
33650003;;a_completer;;1 allée Perrucade;33650;La Brède;44.684;-0.521;;;enseigne inconnue | adresse BAN eloignee des coordonnees | correspondance OpenStreetMap ambigue;1 allée perrucade|33650|la brède;Auchan;complete_auto_banco;"reference_prix_carburants; osm=node/462754721; distance=0m"
45300006;;a_completer;;ZAC DE MORAILLES;45300;Pithiviers-le-Vieil;48.171;2.236;;;enseigne inconnue | adresse BAN eloignee des coordonnees | aucune station OpenStreetMap proche;zac de morailles|45300|pithiviers-le-vieil;Intermarché;complete_auto_banco;"reference_prix_carburants; osm=way/121034434; distance=0m"
30290002;;a_completer;;chemin des lonnes, route des vignerons;30290;Saint-Victor-la-Coste;44.062;4.639;;;enseigne inconnue | adresse BAN eloignee des coordonnees | aucune station OpenStreetMap proche;chemin des lonnes, route des vignerons|30290|saint-victor-la-coste;Utile;complete_auto_banco;"reference_prix_carburants; osm=node/12780098980; distance=0m"
44170001;U;a_completer;;15, Boulevard du Petit Versailles;44170;Nozay;47.57;-1.629;OpenStreetMap;node/4867624034;correspondance OpenStreetMap ambigue;15, boulevard du petit versailles|44170|nozay;U;complete_auto_banco;"reference_prix_carburants; osm=node/4867624034; distance=0m"
59320006;;a_completer;;RN 41;59320;Hallennes-lez-Haubourdin;50.6;2.938;;;enseigne inconnue | adresse BAN eloignee des coordonnees | correspondance OpenStreetMap ambigue;rn 41|59320|hallennes-lez-haubourdin;Total Access;complete_auto_banco;"reference_prix_carburants; osm=node/4656902696; distance=0m"
44650001;;a_completer;;Avenue des Visitandines;44650;Legé;46.8886;-1.59155;;;enseigne inconnue | aucune station OpenStreetMap proche;avenue des visitandines|44650|legé;Super U;complete_auto_banco;"reference_prix_carburants; osm=node/9956222813; distance=0m"
20167012;;a_completer;;RT 20;20167;Sarrola-Carcopino;41.995913;8.827659;;;enseigne inconnue | adresse BAN eloignee des coordonnees | aucune station OpenStreetMap proche;rt 20|20167|sarrola-carcopino;Vito;complete_auto_banco;"reference_prix_carburants; osm=way/66242262; distance=0m"
