id_station;enseigne_actuelle;adresse_actuelle;code_postal;ville;latitude_actuelle;longitude_actuelle;statut_verification;motif_verification;source_actuelle;google_place_id;google_enseigne;google_adresse;google_latitude;google_longitude;google_verifie_le;decision;commentaire
40500002;Intermarché;Route de Mont de Marsan;40500;Saint-Sever;43.773888;-0.5673355;ok_donnees_officielles_osm;;Donn?es officielles carburants + enrichissement OpenStreetMap/BAN;;;;;;;;
80570001;Carrefour Contact;Rue Joliot Curie;80570;Dargnies;50.0455386;1.5266892;ok_donnees_officielles_osm;;Donn?es officielles carburants + enrichissement OpenStreetMap/BAN;;;;;;;;
56580001;U;16 rue chateaubriand;56580;Bréhan;48.061;-2.69;ok_donnees_officielles_osm;;Donn?es officielles carburants + enrichissement OpenStreetMap/BAN;;;;;;;;
38230003;E.Leclerc;Rue des Ardennes;38230;Tignieu-Jameyzieu;45.745;5.183;ok_donnees_officielles_osm;;Donn?es officielles carburants + enrichissement OpenStreetMap/BAN;;;;;;;;
25115001;Super U;Z.A. les Salines;25115;Pouilley-les-Vignes;47.257413;5.924087;ok_donnees_officielles_osm;;Donn?es officielles carburants + enrichissement OpenStreetMap/BAN;;;;;;;;
34150003;Intermarché;Route de Pézenas;34150;Gignac;43.6504008;3.5451865;ok_donnees_officielles_osm;;Donn?es officielles carburants + enrichissement OpenStreetMap/BAN;;;;;;;;
33114001;Super U;Avenue du Médoc ZAC Eyrialis;33114;Le Barp;44.623;-0.787;ok_donnees_officielles_osm;;Donn?es officielles carburants + enrichissement OpenStreetMap/BAN;;;;;;;;
6110002;Avia;Boulevard Carnot;06110;Le Cannet;43.572;7.016;ok_donnees_officielles_osm;;Donn?es officielles carburants + enrichissement OpenStreetMap/BAN;;;;;;;;
95350002;Carrefour;20 avenue robert schumann;95350;Saint-Brice-sous-Forêt;49.0118432;2.3513201;ok_donnees_officielles_osm;;Donn?es officielles carburants + enrichissement OpenStreetMap/BAN;;;;;;;;
93380009;Total Access;42, BOULEVARD JEAN MERMOZ;93380;Saint-Denis;48.966097;2.364131;ok_donnees_officielles_osm;;Donn?es officielles carburants + enrichissement OpenStreetMap/BAN;;;;;;;;
5100009;E.Leclerc;RN 94;05100;Montgenèvre;44.934;6.733;a_verifier_google_places;adresse BAN eloignee des coordonnees;Donn?es officielles carburants + enrichissement OpenStreetMap/BAN;;;;;;;;
12270001;Intermarché;ZA LE LAC;12270;La Fouillade;44.2372224;2.0336003;ok_donnees_officielles_osm;;Donn?es officielles carburants + enrichissement OpenStreetMap/BAN;;;;;;;;
89100001;Carrefour;84 ROUTE DE MAILLOT;89100;Sens;48.1876177;3.3039707;ok_donnees_officielles_osm;;Donn?es officielles carburants + enrichissement OpenStreetMap/BAN;;;;;;;;
58240003;Total Access;ROUTE NATIONALE 7 - LES BOULAISES;58240;Chantenay-Saint-Imbert;46.753517;3.140691;a_verifier_google_places;adresse BAN eloignee des coordonnees;Donn?es officielles carburants + enrichissement OpenStreetMap/BAN;;;;;;;;
92230008;E.Leclerc;192 Avenue Louis Roche;92230;Gennevilliers;48.9320417;2.3054873;ok_donnees_officielles_osm;;Donn?es officielles carburants + enrichissement OpenStreetMap/BAN;;;;;;;;
83790001;Carrefour;Lieu dit le Fege- RN97;83790;Pignans;43.302;6.236;a_verifier_google_places;adresse BAN eloignee des coordonnees;Donn?es officielles carburants + enrichissement OpenStreetMap/BAN;;;;;;;;
60350003;Total Access;ROUTE DE SOISSONS- RN 31;60350;Cuise-la-Motte;49.404;3.008;ok_donnees_officielles_osm;;Donn?es officielles carburants + enrichissement OpenStreetMap/BAN;;;;;;;;
83590001;Intermarché;Le Murier, RD 97;83590;Gonfaron;43.316;6.275;a_verifier_google_places;adresse BAN eloignee des coordonnees;Donn?es officielles carburants + enrichissement OpenStreetMap/BAN;;;;;;;;
7290000;3C;Route d'Annonay;07290;Satillieu;45.160197;4.632881;a_verifier_google_places;adresse BAN eloignee des coordonnees;Donn?es officielles carburants + enrichissement OpenStreetMap/BAN;;;;;;;;
77141003;AviaXpress;RN4 route de Pecy, lieu dit Lugins;77141;Vaudoy-en-Brie;48.684091;3.087163;a_verifier_google_places;adresse BAN eloignee des coordonnees;Donn?es officielles carburants + enrichissement OpenStreetMap/BAN;;;;;;;;
4170002;TotalEnergies;RN 202;04170;Saint-André-les-Alpes;43.967;6.507;ok_donnees_officielles_osm;;Donn?es officielles carburants + enrichissement OpenStreetMap/BAN;;;;;;;;
74250003;Avia;419 Route de la Vallée du Giffre;74250;Fillinges;46.163834;6.349483;ok_donnees_officielles_osm;;Donn?es officielles carburants + enrichissement OpenStreetMap/BAN;;;;;;;;
33210008;Netto;route de Bazas ZI dumes;33210;Langon;44.540479;-0.2418709;ok_donnees_officielles_osm;;Donn?es officielles carburants + enrichissement OpenStreetMap/BAN;;;;;;;;
59550001;Carrefour Market;Boulevard des Résistants;59550;Landrecies;50.124;3.689;ok_donnees_officielles_osm;;Donn?es officielles carburants + enrichissement OpenStreetMap/BAN;;;;;;;;
38570003;Netto;LIEU DIT LE ROMPAY RD523;38570;Le Cheylas;45.386;5.998;a_verifier_google_places;adresse BAN eloignee des coordonnees;Donn?es officielles carburants + enrichissement OpenStreetMap/BAN;;;;;;;;
34670001;AS24;103 Avenue de la Biste;34670;Baillargues;43.6557659;3.9961762;ok_donnees_officielles_osm;;Donn?es officielles carburants + enrichissement OpenStreetMap/BAN;;;;;;;;
24230002;;26 Avenue del peirigord;24230;Vélines;44.852;0.104;a_verifier_google_places;enseigne inconnue, adresse BAN eloignee des coordonnees, correspondance OpenStreetMap ambigue;Donn?es officielles carburants + enrichissement OpenStreetMap/BAN;;;;;;;;
91200001;Carrefour;180 ROUTE NATIONALE 7;91200;Paray-Vieille-Poste;48.7109875;2.3720656;ok_donnees_officielles_osm;;Donn?es officielles carburants + enrichissement OpenStreetMap/BAN;;;;;;;;
21400005;Intermarché;Chaussée de l'Europe;21400;Châtillon-sur-Seine;47.8665102;4.5733883;ok_donnees_officielles_osm;;Donn?es officielles carburants + enrichissement OpenStreetMap/BAN;;;;;;;;
19300002;Super U;Avenue Charles de Gaulle;19300;Égletons;45.4006594;2.0392837;ok_donnees_officielles_osm;;Donn?es officielles carburants + enrichissement OpenStreetMap/BAN;;;;;;;;
30100013;Total;ZI AV. DE CROUPILLAC;30100;Alès;44.138;4.104;a_verifier_google_places;adresse BAN eloignee des coordonnees;Donn?es officielles carburants + enrichissement OpenStreetMap/BAN;;;;;;;;
82800001;Super U;Rue des Marchats;82800;Nègrepelisse;44.076005;1.5185767;ok_donnees_officielles_osm;;Donn?es officielles carburants + enrichissement OpenStreetMap/BAN;;;;;;;;
89330001;Intermarché;Route de Villeneuve;89330;Saint-Julien-du-Sault;48.0359748;3.3062615;ok_donnees_officielles_osm;;Donn?es officielles carburants + enrichissement OpenStreetMap/BAN;;;;;;;;
13270004;Esso Express;DEVIATION RN 568 OUEST;13270;Fos-sur-Mer;43.4402308;4.9398268;ok_donnees_officielles_osm;;Donn?es officielles carburants + enrichissement OpenStreetMap/BAN;;;;;;;;
13380002;Esso Express;89 AVENUE DE LA LIBERATION;13380;Plan-de-Cuques;43.341;5.457;a_verifier_google_places;adresse BAN eloignee des coordonnees;Donn?es officielles carburants + enrichissement OpenStreetMap/BAN;;;;;;;;
34420003;Carrefour Market;ZAE Pôle Méditerranée;34420;Villeneuve-lès-Béziers;43.322;3.291;a_verifier_google_places;adresse BAN eloignee des coordonnees;Donn?es officielles carburants + enrichissement OpenStreetMap/BAN;;;;;;;;
3200005;Carrefour;Allée des ailes;03200;Vichy;46.1426611;3.4129682;ok_donnees_officielles_osm;;Donn?es officielles carburants + enrichissement OpenStreetMap/BAN;;;;;;;;
64500006;TotalEnergies;26 - RN 618 AVENUE DE CHANTACO;64500;Saint-Jean-de-Luz;43.382;-1.649;a_verifier_google_places;adresse BAN eloignee des coordonnees;Donn?es officielles carburants + enrichissement OpenStreetMap/BAN;;;;;;;;
3210001;;1 ROUTE DE COSNE;03210;Souvigny;46.536;3.203;a_verifier_google_places;enseigne inconnue, adresse BAN eloignee des coordonnees, aucune station OpenStreetMap proche;Donn?es officielles carburants + enrichissement OpenStreetMap/BAN;;;;;;;;
77680004;Intermarché;Place Robert Schuman;77680;Roissy-en-Brie;48.79;2.642;ok_donnees_officielles_osm;;Donn?es officielles carburants + enrichissement OpenStreetMap/BAN;;;;;;;;
14400004;Esso;BOULEVARD MONTGOMERY;14400;Bayeux;49.271;-0.694;ok_donnees_officielles_osm;;Donn?es officielles carburants + enrichissement OpenStreetMap/BAN;;;;;;;;
29450001;Système U;ZA du Pont Bleu;29450;Sizun;48.411;-4.087;ok_donnees_officielles_osm;;Donn?es officielles carburants + enrichissement OpenStreetMap/BAN;;;;;;;;
78140010;Esso;27,RUE LOUIS BREGUET;78140;Vélizy-Villacoublay;48.781;2.183;ok_donnees_officielles_osm;;Donn?es officielles carburants + enrichissement OpenStreetMap/BAN;;;;;;;;
86310002;Intermarché;8 Avenue du Général de Gaulle;86310;Saint-Savin;46.567;0.86;ok_donnees_officielles_osm;;Donn?es officielles carburants + enrichissement OpenStreetMap/BAN;;;;;;;;
18200011;Esso;Autoroute A71 - La GazonnièreSens Bourges – Clermond-Ferrand;18200;Farges-Allichamps;46.752;2.416;a_verifier_google_places;adresse BAN eloignee des coordonnees;Donn?es officielles carburants + enrichissement OpenStreetMap/BAN;;;;;;;;
39100006;Intermarché;9 Rue Léon Bel;39100;Dole;47.1092885;5.5077013;ok_donnees_officielles_osm;;Donn?es officielles carburants + enrichissement OpenStreetMap/BAN;;;;;;;;
19190002;Total;RD15 LE BOURG;19190;Le Pescher;45.071202;1.737681;a_verifier_google_places;adresse BAN eloignee des coordonnees;Donn?es officielles carburants + enrichissement OpenStreetMap/BAN;;;;;;;;
64330001;Intermarché;Avenue Georges Phesans;64330;Garlin;43.557;-0.284;a_verifier_google_places;adresse BAN eloignee des coordonnees;Donn?es officielles carburants + enrichissement OpenStreetMap/BAN;;;;;;;;
50260003;Intermarché;240 Rue Bitouzé d'Auxmesnil;50260;Bricquebec-en-Cotentin;49.468;-1.64;ok_donnees_officielles_osm;;Donn?es officielles carburants + enrichissement OpenStreetMap/BAN;;;;;;;;
87570002;Carrefour Contact;87 rue jean monet;87570;Rilhac-Rancon;45.89885;1.31178;ok_donnees_officielles_osm;;Donn?es officielles carburants + enrichissement OpenStreetMap/BAN;;;;;;;;
77550004;;AUTOROUTE A5B - AIRE DE GALANDE-LA-MARE-LAROCHE;77550;Évry-Grégy-sur-Yerre;48.626;2.63;a_verifier_google_places;enseigne inconnue, adresse BAN eloignee des coordonnees, aucune station OpenStreetMap proche;Donn?es officielles carburants + enrichissement OpenStreetMap/BAN;;;;;;;;
69700002;Total;1293 Route de Beaucaire (Ex.45 R.N. 86);69700;Loire-sur-Rhône;45.56;4.81;ok_donnees_officielles_osm;;Donn?es officielles carburants + enrichissement OpenStreetMap/BAN;;;;;;;;
74330002;;Route Nationale 508;74330;Epagny Metz-Tessy;45.941;6.088;a_verifier_google_places;enseigne inconnue, adresse BAN eloignee des coordonnees, aucune station OpenStreetMap proche;Donn?es officielles carburants + enrichissement OpenStreetMap/BAN;;;;;;;;
69480002;Avia;633 route de villefranche;69480;Anse;45.943;4.715;ok_donnees_officielles_osm;;Donn?es officielles carburants + enrichissement OpenStreetMap/BAN;;;;;;;;
43770001;Intermarché;17 Avenue des Champs Élysées;43770;Chadrac;45.0534384;3.898674;ok_donnees_officielles_osm;;Donn?es officielles carburants + enrichissement OpenStreetMap/BAN;;;;;;;;
91100019;Esso;46 avenue du 8 mai 1945;91100;Corbeil-Essonnes;48.611;2.452;ok_donnees_officielles_osm;;Donn?es officielles carburants + enrichissement OpenStreetMap/BAN;;;;;;;;
88170006;Total;AUT.A31-AIRE DE LORRAINE SANDAUCOURT-LES RAPPES;88170;Sandaucourt;48.266636;5.863744;a_verifier_google_places;adresse BAN eloignee des coordonnees;Donn?es officielles carburants + enrichissement OpenStreetMap/BAN;;;;;;;;
33440006;Avia;avenue des Industries;33440;Ambarès-et-Lagrave;44.926153;-0.520542;ok_donnees_officielles_osm;;Donn?es officielles carburants + enrichissement OpenStreetMap/BAN;;;;;;;;
14470001;TotalEnergies;ROUTE DE CAEN;14470;Courseulles-sur-Mer;49.3189256;-0.4527562;ok_donnees_officielles_osm;;Donn?es officielles carburants + enrichissement OpenStreetMap/BAN;;;;;;;;
59540002;Intermarché;Rue de la Gare;59540;Caudry;50.1120775;3.4088173;ok_donnees_officielles_osm;;Donn?es officielles carburants + enrichissement OpenStreetMap/BAN;;;;;;;;
95100011;Esso Express;2 Avenue Gabriel Péri;95100;Argenteuil;48.943;2.253;ok_donnees_officielles_osm;;Donn?es officielles carburants + enrichissement OpenStreetMap/BAN;;;;;;;;
75016001;Carrefour;1 Avenue du Général Sarrail;75016;Paris;48.847;2.256;ok_donnees_officielles_osm;;Donn?es officielles carburants + enrichissement OpenStreetMap/BAN;;;;;;;;
26400002;Eni;19 AVENUE ADRIEN FAYOLLE;26400;Crest;44.726;5.03;ok_donnees_officielles_osm;;Donn?es officielles carburants + enrichissement OpenStreetMap/BAN;;;;;;;;
6201001;Carrefour;606 boulevard du mercantour;06200;Nice;43.73;7.186;a_verifier_google_places;adresse BAN eloignee des coordonnees;Donn?es officielles carburants + enrichissement OpenStreetMap/BAN;;;;;;;;
88400005;TotalEnergies;68 BOULEVARD KELSCH;88400;Gérardmer;48.075;6.884;a_verifier_google_places;adresse BAN eloignee des coordonnees;Donn?es officielles carburants + enrichissement OpenStreetMap/BAN;;;;;;;;
80580001;E.Leclerc;RUE JEAN MOULIN;80580;Pont-Remy;50.0593394;1.8969267;ok_donnees_officielles_osm;;Donn?es officielles carburants + enrichissement OpenStreetMap/BAN;;;;;;;;
66170002;Agnel & Fils;157 AVENUE JEAN JAURES;66170;Millas;42.692;2.691;ok_donnees_officielles_osm;;Donn?es officielles carburants + enrichissement OpenStreetMap/BAN;;;;;;;;
89690001;Intermarché;ROUTE DES BEDETS;89690;Chéroy;48.2;2.992;ok_donnees_officielles_osm;;Donn?es officielles carburants + enrichissement OpenStreetMap/BAN;;;;;;;;
13200009;Intermarché;ZAC de la Fourchon;13200;Arles;43.667512;4.63468;a_verifier_google_places;adresse BAN eloignee des coordonnees;Donn?es officielles carburants + enrichissement OpenStreetMap/BAN;;;;;;;;
67500013;Intermarché;2 RUE DU POSTILLON;67500;Haguenau;48.827314;7.792444;ok_donnees_officielles_osm;;Donn?es officielles carburants + enrichissement OpenStreetMap/BAN;;;;;;;;
39260003;Intermarché;AVENUE DE FRANCHE COMTE;39260;Moirans-en-Montagne;46.439;5.722;ok_donnees_officielles_osm;;Donn?es officielles carburants + enrichissement OpenStreetMap/BAN;;;;;;;;
73600010;Casino;446 AVENUE DES 16EMES J.O. D HIVER;73600;Moûtiers;45.4885153;6.5276747;ok_donnees_officielles_osm;;Donn?es officielles carburants + enrichissement OpenStreetMap/BAN;;;;;;;;
8150003;TotalEnergies;89 AVENUE DES MARTYRS DE LA RESISTANCE;08150;Renwez;49.833628;4.603904;ok_donnees_officielles_osm;;Donn?es officielles carburants + enrichissement OpenStreetMap/BAN;;;;;;;;
20137007;Total;Station TOTAL - Quartier La Poretta;20137;Porto-Vecchio;41.602;9.276;a_verifier_google_places;adresse BAN eloignee des coordonnees;Donn?es officielles carburants + enrichissement OpenStreetMap/BAN;;;;;;;;
13400003;Total;1000 Route de Gemenos;13400;Aubagne;43.297;5.586;ok_donnees_officielles_osm;;Donn?es officielles carburants + enrichissement OpenStreetMap/BAN;;;;;;;;
94420001;Total;63 avenue Maurice Berteaux;94420;Le Plessis-Trévise;48.813;2.566;ok_donnees_officielles_osm;;Donn?es officielles carburants + enrichissement OpenStreetMap/BAN;;;;;;;;
69550003;Intermarché;Route de Roanne;69550;Amplepuis;45.97868;4.3202;ok_donnees_officielles_osm;;Donn?es officielles carburants + enrichissement OpenStreetMap/BAN;;;;;;;;
29270003;Intermarché;2 rue Charles Le Goff;29270;Carhaix-Plouguer;48.27519;-3.58155;ok_donnees_officielles_osm;;Donn?es officielles carburants + enrichissement OpenStreetMap/BAN;;;;;;;;
81600001;E.Leclerc;Route de Toulouse;81600;Gaillac;43.8941404;1.8829744;ok_donnees_officielles_osm;;Donn?es officielles carburants + enrichissement OpenStreetMap/BAN;;;;;;;;
34170001;Système U;753 Route de la Pompignane;34170;Castelnau-le-Lez;43.623;3.898;ok_donnees_officielles_osm;;Donn?es officielles carburants + enrichissement OpenStreetMap/BAN;;;;;;;;
59119003;Total Access;194 Route de Tournai;59119;Waziers;50.392;3.108;ok_donnees_officielles_osm;;Donn?es officielles carburants + enrichissement OpenStreetMap/BAN;;;;;;;;
73420001;E.Leclerc;214 Chemin de la Boisière;73420;Drumettaz-Clarafond;45.6580103;5.9104808;ok_donnees_officielles_osm;;Donn?es officielles carburants + enrichissement OpenStreetMap/BAN;;;;;;;;
83136012;Total;43 avenue de La Liberation;83136;Forcalqueiret;43.339;6.084;ok_donnees_officielles_osm;;Donn?es officielles carburants + enrichissement OpenStreetMap/BAN;;;;;;;;
38470002;Super U;251, Rue de l'Europe;38470;Vinay;45.2077672;5.4119312;ok_donnees_officielles_osm;;Donn?es officielles carburants + enrichissement OpenStreetMap/BAN;;;;;;;;
12350002;Spar;Avenue du rouergue;12350;Lanuéjouls;44.424;2.156;a_verifier_google_places;adresse BAN eloignee des coordonnees;Donn?es officielles carburants + enrichissement OpenStreetMap/BAN;;;;;;;;
33520002;Esso;A630 ROC.PRESQU'ILE LAC COTE2;33520;Bruges;44.888;-0.579;a_verifier_google_places;adresse BAN eloignee des coordonnees, correspondance OpenStreetMap ambigue;Donn?es officielles carburants + enrichissement OpenStreetMap/BAN;;;;;;;;
71000020;;Rue Frédéric Mistral;71000;Mâcon;46.292;4.811;a_verifier_google_places;enseigne inconnue, correspondance OpenStreetMap ambigue;Donn?es officielles carburants + enrichissement OpenStreetMap/BAN;;;;;;;;
74210003;Intermarché;ZA les Boucheroz RN 508;74210;Faverges-Seythenex;45.7542259;6.2781024;ok_donnees_officielles_osm;;Donn?es officielles carburants + enrichissement OpenStreetMap/BAN;;;;;;;;
29610002;Casino;AVENUE DU MARECHAL LECLERC;29610;Plouigneau;48.57;-3.708;a_verifier_google_places;adresse BAN eloignee des coordonnees;Donn?es officielles carburants + enrichissement OpenStreetMap/BAN;;;;;;;;
14130010;;AIRE DE QUETTEVILLE A29;14130;Quetteville;49.336906;0.308019;a_verifier_google_places;enseigne inconnue, adresse BAN eloignee des coordonnees, aucune station OpenStreetMap proche;Donn?es officielles carburants + enrichissement OpenStreetMap/BAN;;;;;;;;
38490013;Avia;556 rue gambetta;38490;Les Abrets en Dauphiné;45.53252;5.586953;ok_donnees_officielles_osm;;Donn?es officielles carburants + enrichissement OpenStreetMap/BAN;;;;;;;;
37380004;Total;AUTOROUTE A10 - AIRE TOURS VAL DE LOIRE;37380;Monnaie;47.4733368;0.7757909;ok_donnees_officielles_osm;;Donn?es officielles carburants + enrichissement OpenStreetMap/BAN;;;;;;;;
7380002;Intermarché;Allée de Vals;07380;Lalevade-d'Ardèche;44.6506233;4.323144;ok_donnees_officielles_osm;;Donn?es officielles carburants + enrichissement OpenStreetMap/BAN;;;;;;;;
25310001;Carrefour Contact;32  GRANDE RUE;25310;Blamont;47.391115;6.847145;a_verifier_google_places;adresse BAN eloignee des coordonnees;Donn?es officielles carburants + enrichissement OpenStreetMap/BAN;;;;;;;;
51240002;Intermarché;RN44;51240;Pogny;48.861;4.485;a_verifier_google_places;adresse BAN eloignee des coordonnees;Donn?es officielles carburants + enrichissement OpenStreetMap/BAN;;;;;;;;
63360003;Intermarché;Rue des Martyrs;63360;Gerzat;45.8193725;3.1493675;ok_donnees_officielles_osm;;Donn?es officielles carburants + enrichissement OpenStreetMap/BAN;;;;;;;;
30160002;La Sauvegarde;Sauvegarde;30160;Bessèges;44.287;4.11;a_verifier_google_places;adresse BAN eloignee des coordonnees;Donn?es officielles carburants + enrichissement OpenStreetMap/BAN;;;;;;;;
86000021;;70, avenue John Kennedy;86000;Poitiers;46.589;0.36;a_verifier_google_places;enseigne inconnue, adresse BAN eloignee des coordonnees, correspondance OpenStreetMap ambigue;Donn?es officielles carburants + enrichissement OpenStreetMap/BAN;;;;;;;;
55700006;Intermarché;AVENUE DE VERDUN;55700;Stenay;49.4907081;5.1931204;ok_donnees_officielles_osm;;Donn?es officielles carburants + enrichissement OpenStreetMap/BAN;;;;;;;;
53140001;;zone Normandie Maine;53140;Pré-en-Pail-Saint-Samson;48.459277;-0.201908;a_verifier_google_places;enseigne inconnue, adresse BAN eloignee des coordonnees, aucune station OpenStreetMap proche;Donn?es officielles carburants + enrichissement OpenStreetMap/BAN;;;;;;;;
31190002;Netto;RN20;31190;Auterive;43.348381;1.472038;a_verifier_google_places;adresse BAN eloignee des coordonnees;Donn?es officielles carburants + enrichissement OpenStreetMap/BAN;;;;;;;;
58000010;Esso;10 Boulevard Pierre de Coubertin;58000;Nevers;46.987;3.162;ok_donnees_officielles_osm;;Donn?es officielles carburants + enrichissement OpenStreetMap/BAN;;;;;;;;
6580001;Super U;87 Route de la Fènerie;06580;Pégomas;43.592;6.93;ok_donnees_officielles_osm;;Donn?es officielles carburants + enrichissement OpenStreetMap/BAN;;;;;;;;
33640002;Total;43 Route des Graves;33640;Portets;44.688;-0.417;a_verifier_google_places;adresse BAN eloignee des coordonnees;Donn?es officielles carburants + enrichissement OpenStreetMap/BAN;;;;;;;;
21510001;Avia;9 Rue d'Archeron;21510;Aignay-le-Duc;47.663975;4.729923;ok_donnees_officielles_osm;;Donn?es officielles carburants + enrichissement OpenStreetMap/BAN;;;;;;;;
29510005;;Rue d'Armor;29170;Saint-Évarzec;47.938;-4.023;a_verifier_google_places;enseigne inconnue, adresse BAN eloignee des coordonnees, correspondance OpenStreetMap ambigue;Donn?es officielles carburants + enrichissement OpenStreetMap/BAN;;;;;;;;
94800008;Total Access;60 AV DE STALINGRAD;94800;Villejuif;48.785418;2.3666;ok_donnees_officielles_osm;;Donn?es officielles carburants + enrichissement OpenStreetMap/BAN;;;;;;;;
13170013;Eni;RN 113;13170;Les Pennes-Mirabeau;43.411139;5.30966;ok_donnees_officielles_osm;;Donn?es officielles carburants + enrichissement OpenStreetMap/BAN;;;;;;;;
38500006;TotalEnergies;7 RUE DE L'INDUSTRIE;38500;Voiron;45.35872;5.5921749;ok_donnees_officielles_osm;;Donn?es officielles carburants + enrichissement OpenStreetMap/BAN;;;;;;;;
62180002;Intermarché;LA FOLIE NORD;62180;Rang-du-Fliers;50.414143;1.6092676;ok_donnees_officielles_osm;;Donn?es officielles carburants + enrichissement OpenStreetMap/BAN;;;;;;;;
33340001;Carrefour;25 COURS GEORGES MANDEL;33340;Lesparre-Médoc;45.3110571;-0.9395376;ok_donnees_officielles_osm;;Donn?es officielles carburants + enrichissement OpenStreetMap/BAN;;;;;;;;
33760002;Carrefour;Route de Bordeaux;33760;Targon;44.7356835;-0.2670073;ok_donnees_officielles_osm;;Donn?es officielles carburants + enrichissement OpenStreetMap/BAN;;;;;;;;
39700013;Total Access;ROUTE NATIONALE 73;39700;Rochefort-sur-Nenon;47.116137;5.538522;a_verifier_google_places;adresse BAN eloignee des coordonnees, correspondance OpenStreetMap ambigue;Donn?es officielles carburants + enrichissement OpenStreetMap/BAN;;;;;;;;
76240001;Super U;rue Etienne ACHAVANNE;76240;Bonsecours;49.418;1.133;ok_donnees_officielles_osm;;Donn?es officielles carburants + enrichissement OpenStreetMap/BAN;;;;;;;;
42100005;Esso Express;36 Rue de Terrenoire;42100;Saint-Étienne;45.43331;4.4161793;ok_donnees_officielles_osm;;Donn?es officielles carburants + enrichissement OpenStreetMap/BAN;;;;;;;;
43000004;Esso Express;106 Avenue Maréchal Foch;43000;Le Puy-en-Velay;45.033;3.886;ok_donnees_officielles_osm;;Donn?es officielles carburants + enrichissement OpenStreetMap/BAN;;;;;;;;
20129001;Vito;SUARALTA;20129;Bastelicaccia;41.924;8.825;a_verifier_google_places;adresse BAN eloignee des coordonnees;Donn?es officielles carburants + enrichissement OpenStreetMap/BAN;;;;;;;;
38200019;Monoprix;2 RUE DU COLONEL ARNAUD BELTRAME;38200;Vienne;45.502489;4.850513;ok_donnees_officielles_osm;;Donn?es officielles carburants + enrichissement OpenStreetMap/BAN;;;;;;;;
44260003;Système U;Rue des Musiciens;44260;Malville;47.35931;-1.86116;ok_donnees_officielles_osm;;Donn?es officielles carburants + enrichissement OpenStreetMap/BAN;;;;;;;;
45100008;Relais Orléans La Source;39 AV .J.F.KENNEDY;45100;Orléans;47.84264;1.92524;ok_donnees_officielles_osm;;Donn?es officielles carburants + enrichissement OpenStreetMap/BAN;;;;;;;;
55200004;Intermarché;1 rue Jean Moulin;55200;Commercy;48.7546556;5.5881169;ok_donnees_officielles_osm;;Donn?es officielles carburants + enrichissement OpenStreetMap/BAN;;;;;;;;
74350006;Avia;363 ROUTE D'ANNECY;74350;Cruseilles;46.0295221;6.1057577;ok_donnees_officielles_osm;;Donn?es officielles carburants + enrichissement OpenStreetMap/BAN;;;;;;;;
71600003;E.Leclerc;Parc d'activités de Champ Bossu;71600;Paray-le-Monial;46.467142;4.113163;a_verifier_google_places;adresse BAN eloignee des coordonnees;Donn?es officielles carburants + enrichissement OpenStreetMap/BAN;;;;;;;;
46300004;Intermarché;Route de Fumel;46300;Gourdon;44.726;1.373;a_verifier_google_places;adresse BAN eloignee des coordonnees;Donn?es officielles carburants + enrichissement OpenStreetMap/BAN;;;;;;;;
88600001;Total;500 ROUTE DE LEPANGES;88600;Laval-sur-Vologne;48.188;6.688;ok_donnees_officielles_osm;;Donn?es officielles carburants + enrichissement OpenStreetMap/BAN;;;;;;;;
67310003;E.Leclerc;58 Route de Hohengoeft;67310;Wasselonne;48.646;7.453;a_verifier_google_places;adresse BAN eloignee des coordonnees;Donn?es officielles carburants + enrichissement OpenStreetMap/BAN;;;;;;;;
26290008;Super U;280 avenue Jean Moulin RN7;26290;Donzère;44.4328123;4.7125563;ok_donnees_officielles_osm;;Donn?es officielles carburants + enrichissement OpenStreetMap/BAN;;;;;;;;
64100010;Carrefour;22 Chemin d'Arancette;64100;Bayonne;43.483;-1.488;ok_donnees_officielles_osm;;Donn?es officielles carburants + enrichissement OpenStreetMap/BAN;;;;;;;;
51000005;Esso Express;ROUTE D'EPERNAY;51000;Châlons-en-Champagne;48.955;4.332;ok_donnees_officielles_osm;;Donn?es officielles carburants + enrichissement OpenStreetMap/BAN;;;;;;;;
30000016;E.Leclerc;120 Chemin du Mas Fléchier;30900;Nîmes;43.815228;4.369349;ok_donnees_officielles_osm;;Donn?es officielles carburants + enrichissement OpenStreetMap/BAN;;;;;;;;
57430004;Total;97 Route de Strasbourg;57430;Sarralbe;48.987;7.028;ok_donnees_officielles_osm;;Donn?es officielles carburants + enrichissement OpenStreetMap/BAN;;;;;;;;
70000001;Carrefour;Boulevard Kennedy;70000;Vesoul;47.627;6.172;ok_donnees_officielles_osm;;Donn?es officielles carburants + enrichissement OpenStreetMap/BAN;;;;;;;;
52100008;Esso;ROUTE DE VITRY;52100;Saint-Dizier;48.64166;4.9074212;ok_donnees_officielles_osm;;Donn?es officielles carburants + enrichissement OpenStreetMap/BAN;;;;;;;;
66700003;Dyneff;Avenue du 8 mai 1945;66700;Argelès-sur-Mer;42.55;3.041;a_verifier_google_places;adresse BAN eloignee des coordonnees;Donn?es officielles carburants + enrichissement OpenStreetMap/BAN;;;;;;;;
54450002;Elan;11 GRANDE RUE;54450;Avricourt;48.644;6.806;ok_donnees_officielles_osm;;Donn?es officielles carburants + enrichissement OpenStreetMap/BAN;;;;;;;;
6600008;Esso Express;20 Boulevard Maréchal Leclerc;06600;Antibes;43.574;7.124;ok_donnees_officielles_osm;;Donn?es officielles carburants + enrichissement OpenStreetMap/BAN;;;;;;;;
54240002;Esso Express;96 Rue de Franchepré;54240;Jœuf;49.225;6.014;ok_donnees_officielles_osm;;Donn?es officielles carburants + enrichissement OpenStreetMap/BAN;;;;;;;;
54220001;Esso Express;49 Rue du Colonel Driant;54220;Malzéville;48.705;6.192;ok_donnees_officielles_osm;;Donn?es officielles carburants + enrichissement OpenStreetMap/BAN;;;;;;;;
54230001;Esso Express;46 Rue du Capitaine Caillon;54230;Neuves-Maisons;48.615;6.104;ok_donnees_officielles_osm;;Donn?es officielles carburants + enrichissement OpenStreetMap/BAN;;;;;;;;
53410003;TotalEnergies;2 route Neuve;53410;La Gravelle;48.074;-1.016;ok_donnees_officielles_osm;;Donn?es officielles carburants + enrichissement OpenStreetMap/BAN;;;;;;;;
57600003;Esso;655 Rue de Sarreguemines;57600;Œting;49.1747393;6.9179112;ok_donnees_officielles_osm;;Donn?es officielles carburants + enrichissement OpenStreetMap/BAN;;;;;;;;
55160014;Esso;AUTOROUTE A4 AIRE DE VERDUN SAINT NICOLAS NORD;55160;Haudiomont;49.120326;5.508398;ok_donnees_officielles_osm;;Donn?es officielles carburants + enrichissement OpenStreetMap/BAN;;;;;;;;
70130001;Avia;12, avenue des Peupliers;70130;Fresne-Saint-Mamès;47.5506957;5.8571485;ok_donnees_officielles_osm;;Donn?es officielles carburants + enrichissement OpenStreetMap/BAN;;;;;;;;
59174002;Avia;AUTOROUTE A2 - AIRE DE LA SENTINELLE OUEST;59174;La Sentinelle;50.3395274;3.468736;ok_donnees_officielles_osm;;Donn?es officielles carburants + enrichissement OpenStreetMap/BAN;;;;;;;;
59130001;Esso Express;237 Avenue de l'Hippodrome;59130;Lambersart;50.645;3.029;ok_donnees_officielles_osm;;Donn?es officielles carburants + enrichissement OpenStreetMap/BAN;;;;;;;;
59280001;Esso;20 Rue Gambetta;59280;Armentières;50.6827857;2.8825119;ok_donnees_officielles_osm;;Donn?es officielles carburants + enrichissement OpenStreetMap/BAN;;;;;;;;
77230001;Total;ROUTE DE PARIS;77230;Villeneuve-sous-Dammartin;49.033351;2.636005;a_verifier_google_places;adresse BAN eloignee des coordonnees;Donn?es officielles carburants + enrichissement OpenStreetMap/BAN;;;;;;;;
83600026;Eni;959 avenue du Maréchal de Lattre de Tassigny;83600;Fréjus;43.431001;6.75528;ok_donnees_officielles_osm;;Donn?es officielles carburants + enrichissement OpenStreetMap/BAN;;;;;;;;
30420002;Système U;2, rue du Levant;30420;Calvisson;43.783121;4.2036;ok_donnees_officielles_osm;;Donn?es officielles carburants + enrichissement OpenStreetMap/BAN;;;;;;;;
59440002;Esso Express;39 AVENUE STROH;59440;Avesnes-sur-Helpe;50.129;3.937;ok_donnees_officielles_osm;;Donn?es officielles carburants + enrichissement OpenStreetMap/BAN;;;;;;;;
59450002;Esso Express;121 AVENUE ROGER SALENGRO;59450;Douai;50.3635213;3.0979443;ok_donnees_officielles_osm;;Donn?es officielles carburants + enrichissement OpenStreetMap/BAN;;;;;;;;
38350005;TotalEnergies;AVENUE DU 22 AOUT 1944;38350;La Mure;44.913;5.784;a_verifier_google_places;adresse BAN eloignee des coordonnees;Donn?es officielles carburants + enrichissement OpenStreetMap/BAN;;;;;;;;
44720005;Carrefour Contact;PLACE DE LA COMMUNE DE PARIS;44720;Saint-Joachim;47.3851809;-2.2028539;ok_donnees_officielles_osm;;Donn?es officielles carburants + enrichissement OpenStreetMap/BAN;;;;;;;;
50760001;Carrefour Contact;132 RUE ST THOMAS;50760;Barfleur;49.666;-1.27;ok_donnees_officielles_osm;;Donn?es officielles carburants + enrichissement OpenStreetMap/BAN;;;;;;;;
62560002;;26 RUE PRINCIPALE;62560;Dennebrœucq;50.571189;2.150657;ok_donnees_officielles_osm;;Donn?es officielles carburants + enrichissement OpenStreetMap/BAN;;;;;;;;
20200006;Total;37 ROUTE DU CAP;20200;San-Martino-di-Lota;42.7237229;9.4570854;ok_donnees_officielles_osm;;Donn?es officielles carburants + enrichissement OpenStreetMap/BAN;;;;;;;;
25110001;Total Access;2 Avenue du Général Leclerc;25110;Baume-les-Dames;47.352;6.358;ok_donnees_officielles_osm;;Donn?es officielles carburants + enrichissement OpenStreetMap/BAN;;;;;;;;
82700001;;171 Avenue d'Auch;82700;Montech;43.956;1.221;a_verifier_google_places;enseigne inconnue, adresse BAN eloignee des coordonnees, correspondance OpenStreetMap ambigue;Donn?es officielles carburants + enrichissement OpenStreetMap/BAN;;;;;;;;
93150009;Total;140 AVENUE DE LA REPUBLIQUE;93150;Le Blanc-Mesnil;48.935;2.473;ok_donnees_officielles_osm;;Donn?es officielles carburants + enrichissement OpenStreetMap/BAN;;;;;;;;
24340002;Carrefour;Lieu dit chez Noillac;24340;Mareuil en Périgord;45.447;0.467;a_verifier_google_places;adresse BAN eloignee des coordonnees;Donn?es officielles carburants + enrichissement OpenStreetMap/BAN;;;;;;;;
54670004;Total;41 RUE DU GAL LECLERC;54670;Custines;48.792845;6.145033;ok_donnees_officielles_osm;;Donn?es officielles carburants + enrichissement OpenStreetMap/BAN;;;;;;;;
76630001;Carrefour;72 RUE DES CANADIENS;76630;Envermeu;49.8974214;1.2536578;ok_donnees_officielles_osm;;Donn?es officielles carburants + enrichissement OpenStreetMap/BAN;;;;;;;;
18390004;Intermarché;1 Place du 8 Mai 1945;18390;Saint-Germain-du-Puy;47.099;2.489;ok_donnees_officielles_osm;;Donn?es officielles carburants + enrichissement OpenStreetMap/BAN;;;;;;;;
56530001;E.Leclerc;Place Pierre Quinio;56530;Quéven;47.79;-3.421;ok_donnees_officielles_osm;;Donn?es officielles carburants + enrichissement OpenStreetMap/BAN;;;;;;;;
38200007;Intermarché;ZA de la Gère;38200;Vienne;45.519;4.919;a_verifier_google_places;adresse BAN eloignee des coordonnees;Donn?es officielles carburants + enrichissement OpenStreetMap/BAN;;;;;;;;
59760001;;Avenue de l'Ancien Village;59760;Grande-Synthe;51.011;2.293;a_verifier_google_places;enseigne inconnue, aucune station OpenStreetMap proche;Donn?es officielles carburants + enrichissement OpenStreetMap/BAN;;;;;;;;
71170003;Intermarché;Route de Charlieu;71170;Chauffailles;46.207;4.314;a_verifier_google_places;adresse BAN eloignee des coordonnees;Donn?es officielles carburants + enrichissement OpenStreetMap/BAN;;;;;;;;
14404001;E.Leclerc;Boulevard du 6 Juin;14400;Bayeux;49.2766589;-0.7165803;ok_donnees_officielles_osm;;Donn?es officielles carburants + enrichissement OpenStreetMap/BAN;;;;;;;;
13990002;Avia;70 cours Hyacinthe Bellon;13990;Fontvieille;43.727;4.712;ok_donnees_officielles_osm;;Donn?es officielles carburants + enrichissement OpenStreetMap/BAN;;;;;;;;
69009003;Esso;69 AVENUE DU 25EME RTS;69009;Lyon;45.781;4.801;ok_donnees_officielles_osm;;Donn?es officielles carburants + enrichissement OpenStreetMap/BAN;;;;;;;;
17220002;Intermarché;LE PETIT BONNEVEAU;17220;Salles-sur-Mer;46.084;-1.074;ok_donnees_officielles_osm;;Donn?es officielles carburants + enrichissement OpenStreetMap/BAN;;;;;;;;
57580002;Total;route de Metz;57580;Rémilly;49.0177583;6.3840805;ok_donnees_officielles_osm;;Donn?es officielles carburants + enrichissement OpenStreetMap/BAN;;;;;;;;
12500002;Total;24 Bd de Guizard;12500;Espalion;44.524117;2.76457;ok_donnees_officielles_osm;;Donn?es officielles carburants + enrichissement OpenStreetMap/BAN;;;;;;;;
21240003;Super U;8 Rue Charles Dullin;21240;Talant;47.341;4.997;ok_donnees_officielles_osm;;Donn?es officielles carburants + enrichissement OpenStreetMap/BAN;;;;;;;;
59300021;BP;36 AV DE ST AMAND;59300;Valenciennes;50.366;3.513;ok_donnees_officielles_osm;;Donn?es officielles carburants + enrichissement OpenStreetMap/BAN;;;;;;;;
23500002;Intermarché;26 ROUTE D'AUBUSSON;23500;Felletin;45.888;2.176;ok_donnees_officielles_osm;;Donn?es officielles carburants + enrichissement OpenStreetMap/BAN;;;;;;;;
59100012;Total;48 AVENUE GUSTAVE DELORY;59100;Roubaix;50.67431;3.17409;ok_donnees_officielles_osm;;Donn?es officielles carburants + enrichissement OpenStreetMap/BAN;;;;;;;;
92242003;Total;12 Avenue Pierre Brossolette;92242;Malakoff;48.821;2.312;ok_donnees_officielles_osm;;Donn?es officielles carburants + enrichissement OpenStreetMap/BAN;;;;;;;;
66005001;E.Leclerc;Avenue Victor Dalbiez;66000;Perpignan;42.686492;2.882714;ok_donnees_officielles_osm;;Donn?es officielles carburants + enrichissement OpenStreetMap/BAN;;;;;;;;
91620001;Carrefour;5 RUE DE LA CROIX SAINT JACQUES;91620;La Ville-du-Bois;48.67;2.277;a_verifier_google_places;adresse BAN eloignee des coordonnees, correspondance OpenStreetMap ambigue;Donn?es officielles carburants + enrichissement OpenStreetMap/BAN;;;;;;;;
74000004;Esso Express;AVENUE DE LA PLAINE;74000;Annecy;45.917;6.128;a_verifier_google_places;adresse BAN eloignee des coordonnees;Donn?es officielles carburants + enrichissement OpenStreetMap/BAN;;;;;;;;
91410004;E.Leclerc;69 Avenue Charles de Gaulle;91420;Morangis;48.706;2.343;ok_donnees_officielles_osm;;Donn?es officielles carburants + enrichissement OpenStreetMap/BAN;;;;;;;;
87120005;Intermarché;1, rue Léon Jouhaud - Claud;87120;Eymoutiers;45.738215;1.73525;ok_donnees_officielles_osm;;Donn?es officielles carburants + enrichissement OpenStreetMap/BAN;;;;;;;;
74960003;Esso;1 Avenue de la République;74960;Annecy;45.906;6.113;ok_donnees_officielles_osm;;Donn?es officielles carburants + enrichissement OpenStreetMap/BAN;;;;;;;;
73000012;Total Access;VOIE RAP. URB. RN 201;73000;La Motte-Servolex;45.609641;5.886971;a_verifier_google_places;adresse BAN eloignee des coordonnees;Donn?es officielles carburants + enrichissement OpenStreetMap/BAN;;;;;;;;
67370003;E.Leclerc;5 ALLEE DE L’ECONOMIE;67370;Wiwersheim;48.644;7.598;ok_donnees_officielles_osm;;Donn?es officielles carburants + enrichissement OpenStreetMap/BAN;;;;;;;;
76200002;Esso Express;78 RUE GAMBETTA;76200;Dieppe;49.916;1.075;ok_donnees_officielles_osm;;Donn?es officielles carburants + enrichissement OpenStreetMap/BAN;;;;;;;;
24240003;Carrefour Contact;18 place de l'ancien temple;24240;Sigoulès-et-Flaugeac;44.757399;0.411063;ok_donnees_officielles_osm;;Donn?es officielles carburants + enrichissement OpenStreetMap/BAN;;;;;;;;
76260005;Total;24 BD. FAIDHERBE - RD 925;76260;Eu;50.051;1.423;ok_donnees_officielles_osm;;Donn?es officielles carburants + enrichissement OpenStreetMap/BAN;;;;;;;;
78120005;E.Leclerc;rue Clos Batant;78120;Rambouillet;48.6460788;1.8561934;ok_donnees_officielles_osm;;Donn?es officielles carburants + enrichissement OpenStreetMap/BAN;;;;;;;;
31200022;Total Access;55 BOULEVARD DE SUISSE;31200;Toulouse;43.616;1.421;ok_donnees_officielles_osm;;Donn?es officielles carburants + enrichissement OpenStreetMap/BAN;;;;;;;;
57790001;Intermarché;1BIS RUE DU GENERAL DE GAULLE;57790;Lorquin;48.671;7.0;ok_donnees_officielles_osm;;Donn?es officielles carburants + enrichissement OpenStreetMap/BAN;;;;;;;;
59282001;Intermarché;28 ROUTE D'HASPRES;59282;Douchy-les-Mines;50.3047737;3.4028794;ok_donnees_officielles_osm;;Donn?es officielles carburants + enrichissement OpenStreetMap/BAN;;;;;;;;
34620002;Dyneff;43 avenue de béziers;34620;Puisserguier;43.367;3.049;ok_donnees_officielles_osm;;Donn?es officielles carburants + enrichissement OpenStreetMap/BAN;;;;;;;;
8090001;Esso Express;RN 43 LE PORT LEROY;08090;Cliron;49.805;4.621;a_verifier_google_places;adresse BAN eloignee des coordonnees;Donn?es officielles carburants + enrichissement OpenStreetMap/BAN;;;;;;;;
92160006;TotalEnergies;100 AV DU PRESIDENT KENNEDY;92160;Antony;48.738;2.295;ok_donnees_officielles_osm;;Donn?es officielles carburants + enrichissement OpenStreetMap/BAN;;;;;;;;
77210001;Esso;73 Avenue du Président Franklin Roosevelt;77210;Fontainebleau;48.417;2.723;a_verifier_google_places;adresse BAN eloignee des coordonnees;Donn?es officielles carburants + enrichissement OpenStreetMap/BAN;;;;;;;;
78170002;Esso;64 Avenue Lucien-René Duchesne;78170;La Celle-Saint-Cloud;48.837;2.13;ok_donnees_officielles_osm;;Donn?es officielles carburants + enrichissement OpenStreetMap/BAN;;;;;;;;
11100010;Esso;AVENUE CROIX SUD;11100;Narbonne;43.161;2.988;ok_donnees_officielles_osm;;Donn?es officielles carburants + enrichissement OpenStreetMap/BAN;;;;;;;;
20110006;Vito;4 Quartier Saint Joseph;20110;Propriano;41.671966;8.908768;ok_donnees_officielles_osm;;Donn?es officielles carburants + enrichissement OpenStreetMap/BAN;;;;;;;;
22250001;Système U;Rue du Pilaga;22250;Broons;48.3172985;-2.2506362;ok_donnees_officielles_osm;;Donn?es officielles carburants + enrichissement OpenStreetMap/BAN;;;;;;;;
67452001;Carrefour;1 Boulevard des Enseignes;67450;Vendenheim;48.655;7.724;a_verifier_google_places;adresse BAN eloignee des coordonnees;Donn?es officielles carburants + enrichissement OpenStreetMap/BAN;;;;;;;;
80100007;Total Access;213 Boulevard de la République;80100;Abbeville;50.113;1.829;ok_donnees_officielles_osm;;Donn?es officielles carburants + enrichissement OpenStreetMap/BAN;;;;;;;;
81000005;Esso Express;246 Avenue Colonel Teyssier;81000;Albi;43.9213781;2.1665076;ok_donnees_officielles_osm;;Donn?es officielles carburants + enrichissement OpenStreetMap/BAN;;;;;;;;
80000008;Esso;28 Place du Maréchal Foch;80000;Amiens;49.894;2.285;ok_donnees_officielles_osm;;Donn?es officielles carburants + enrichissement OpenStreetMap/BAN;;;;;;;;
20166002;Total;Station TOTAL - Relais du Rupione;20166;Pietrosella;41.835;8.779;a_verifier_google_places;adresse BAN eloignee des coordonnees;Donn?es officielles carburants + enrichissement OpenStreetMap/BAN;;;;;;;;
8330002;Carrefour;12 RUE PIERRE VIENOT;08330;Vrigne aux Bois;49.735;4.85;ok_donnees_officielles_osm;;Donn?es officielles carburants + enrichissement OpenStreetMap/BAN;;;;;;;;
67120002;Total;RN 422;67120;Dorlisheim;48.529267;7.497474;ok_donnees_officielles_osm;;Donn?es officielles carburants + enrichissement OpenStreetMap/BAN;;;;;;;;
82710003;;Aire de Nauze Vert, RN 20;82710;Bressols;43.968;1.339;a_verifier_google_places;enseigne inconnue, adresse BAN eloignee des coordonnees, aucune station OpenStreetMap proche;Donn?es officielles carburants + enrichissement OpenStreetMap/BAN;;;;;;;;
29880005;Carrefour Contact;Rue d'Armorique;29880;Plouguerneau;48.606916;-4.511056;ok_donnees_officielles_osm;;Donn?es officielles carburants + enrichissement OpenStreetMap/BAN;;;;;;;;
35400007;E.Leclerc;55 Boulevard des Déportés;35400;Saint-Malo;48.6578715;-1.9722273;ok_donnees_officielles_osm;;Donn?es officielles carburants + enrichissement OpenStreetMap/BAN;;;;;;;;
36140003;TotalEnergies;51 avenue de la République;36140;Aigurande;46.437;1.823;ok_donnees_officielles_osm;;Donn?es officielles carburants + enrichissement OpenStreetMap/BAN;;;;;;;;
86000025;Casino;2 AVENUE DE LAFAYETTE;86000;Poitiers;46.575844;0.374637;ok_donnees_officielles_osm;;Donn?es officielles carburants + enrichissement OpenStreetMap/BAN;;;;;;;;
87160002;Esso;AUTOROUTE A 20;87160;Saint-Sulpice-les-Feuilles;46.313;1.419;a_verifier_google_places;adresse BAN eloignee des coordonnees;Donn?es officielles carburants + enrichissement OpenStreetMap/BAN;;;;;;;;
18600003;Intermarché;Route de Saint Pierre Le Moutier;18600;Sancoins;46.833;2.938;a_verifier_google_places;adresse BAN eloignee des coordonnees;Donn?es officielles carburants + enrichissement OpenStreetMap/BAN;;;;;;;;
13500011;TotalEnergies;ROUTE DE LAVERA;13500;Martigues;43.399;5.041;a_verifier_google_places;adresse BAN eloignee des coordonnees;Donn?es officielles carburants + enrichissement OpenStreetMap/BAN;;;;;;;;
29690002;Intermarché;Rue Paul Gauguin;29690;Huelgoat;48.368;-3.749;ok_donnees_officielles_osm;;Donn?es officielles carburants + enrichissement OpenStreetMap/BAN;;;;;;;;
30500003;Intermarché;Route d'Uzès;30500;Saint-Ambroix;44.255;4.203;a_verifier_google_places;adresse BAN eloignee des coordonnees, correspondance OpenStreetMap ambigue;Donn?es officielles carburants + enrichissement OpenStreetMap/BAN;;;;;;;;
48000006;Boissonnade Combustibles;3 rue de la tendelle, ZAE du Causse d'Auge;48000;Mende;44.535;3.503;ok_donnees_officielles_osm;;Donn?es officielles carburants + enrichissement OpenStreetMap/BAN;;;;;;;;
95440001;Super U;56 Rue de la Libération;95440;Écouen;49.027;2.369;ok_donnees_officielles_osm;;Donn?es officielles carburants + enrichissement OpenStreetMap/BAN;;;;;;;;
34360002;Intermarché;420, avenue de Saint Pons;34360;Saint-Chinian;43.4223366;2.9369073;ok_donnees_officielles_osm;;Donn?es officielles carburants + enrichissement OpenStreetMap/BAN;;;;;;;;
30300008;Esso;36 AVENUE DE FARCIENNES;30300;Beaucaire;43.812;4.63;ok_donnees_officielles_osm;;Donn?es officielles carburants + enrichissement OpenStreetMap/BAN;;;;;;;;
44220005;Carrefour;Boulevard Paul Langevin;44220;Couëron;47.2135778;-1.7238952;ok_donnees_officielles_osm;;Donn?es officielles carburants + enrichissement OpenStreetMap/BAN;;;;;;;;
7430002;Carrefour Market;Route de Lyon;07430;Davézieux;45.2609353;4.7020098;ok_donnees_officielles_osm;;Donn?es officielles carburants + enrichissement OpenStreetMap/BAN;;;;;;;;
56550002;Total;97 route de PONT LOROIS;56550;Belz;47.676;-3.197;ok_donnees_officielles_osm;;Donn?es officielles carburants + enrichissement OpenStreetMap/BAN;;;;;;;;
6540002;Eni;839 route de LA GIANDOLA;06540;Breil-sur-Roya;43.9577359;7.5206506;ok_donnees_officielles_osm;;Donn?es officielles carburants + enrichissement OpenStreetMap/BAN;;;;;;;;
84500006;TotalEnergies;AV JEAN GIONO;84500;Pont-Saint-Esprit;44.258;4.65;a_verifier_google_places;adresse BAN eloignee des coordonnees;Donn?es officielles carburants + enrichissement OpenStreetMap/BAN;;;;;;;;
61000008;Bayi Carburants;111 Avenue de Basingstoke;61000;Alençon;48.44542;0.09912;ok_donnees_officielles_osm;;Donn?es officielles carburants + enrichissement OpenStreetMap/BAN;;;;;;;;
10110001;Esso;14 FAUX BOURG DE BOURGOGNE;10110;Bar-sur-Seine;48.106;4.377;ok_donnees_officielles_osm;;Donn?es officielles carburants + enrichissement OpenStreetMap/BAN;;;;;;;;
67210004;TotalEnergies;8 RUE DU MARECHAL JUIN;67210;Obernai;48.45959;7.49509;ok_donnees_officielles_osm;;Donn?es officielles carburants + enrichissement OpenStreetMap/BAN;;;;;;;;
78760004;Total Access;32 ROUTE DU PONTEL;78760;Jouars-Pontchartrain;48.804;1.896;ok_donnees_officielles_osm;;Donn?es officielles carburants + enrichissement OpenStreetMap/BAN;;;;;;;;
38690007;Eni;AUTOROUTE A 48 GARE DE PEAGE;38690;Colombe;45.384529;5.472348;a_verifier_google_places;adresse BAN eloignee des coordonnees;Donn?es officielles carburants + enrichissement OpenStreetMap/BAN;;;;;;;;
59460002;Intermarché;940 Rue du Maréchal Leclerc;59460;Jeumont;50.309;4.089;a_verifier_google_places;adresse BAN eloignee des coordonnees;Donn?es officielles carburants + enrichissement OpenStreetMap/BAN;;;;;;;;
33370006;Intermarché;avenue Guyenne;33370;Artigues-près-Bordeaux;44.8485887;-0.4978827;ok_donnees_officielles_osm;;Donn?es officielles carburants + enrichissement OpenStreetMap/BAN;;;;;;;;
34690009;TotalEnergies;A9 - AIRE DE FABREGUES NORD;34690;Fabrègues;43.548176;3.795601;a_verifier_google_places;adresse BAN eloignee des coordonnees;Donn?es officielles carburants + enrichissement OpenStreetMap/BAN;;;;;;;;
49123002;JSE station;28 BIS VILLAGE LA RIOTTIERE;49123;Ingrandes-le-Fresne-sur-Loire;47.410243;-0.936755;a_verifier_google_places;adresse BAN eloignee des coordonnees;Donn?es officielles carburants + enrichissement OpenStreetMap/BAN;;;;;;;;
91180001;Total Access;RN 20;91180;Saint-Germain-lès-Arpajon;48.603;2.248;ok_donnees_officielles_osm;;Donn?es officielles carburants + enrichissement OpenStreetMap/BAN;;;;;;;;
92170002;Total;59 RUE JEAN BLEUZEN;92170;Vanves;48.82274;2.29497;ok_donnees_officielles_osm;;Donn?es officielles carburants + enrichissement OpenStreetMap/BAN;;;;;;;;
59400008;TotalEnergies;58 RUE DE DOUAI;59400;Cambrai;50.185;3.225;ok_donnees_officielles_osm;;Donn?es officielles carburants + enrichissement OpenStreetMap/BAN;;;;;;;;
49150001;Système U;Av. d'Angers;49150;Baugé-en-Anjou;47.545229;-0.110352;ok_donnees_officielles_osm;;Donn?es officielles carburants + enrichissement OpenStreetMap/BAN;;;;;;;;
89380001;Avia XPress;ROUTE DE JOIGNY;89380;Appoigny;47.880827;3.526837;ok_donnees_officielles_osm;;Donn?es officielles carburants + enrichissement OpenStreetMap/BAN;;;;;;;;
15290001;Etablissements Lacombe;35 bis Avenue du 15 Septembre 1945;15290;Le Rouget-Pers;44.855;2.233;ok_donnees_officielles_osm;;Donn?es officielles carburants + enrichissement OpenStreetMap/BAN;;;;;;;;
91380004;Carrefour Market;7 Avenue Pierre Brossolette;91380;Chilly-Mazarin;48.701;2.319;ok_donnees_officielles_osm;;Donn?es officielles carburants + enrichissement OpenStreetMap/BAN;;;;;;;;
91370001;Esso Express;BD DU MARECHAL JUIN;91370;Verrières-le-Buisson;48.753;2.273;ok_donnees_officielles_osm;;Donn?es officielles carburants + enrichissement OpenStreetMap/BAN;;;;;;;;
31350004;Avia;avenue Charles Suran;31350;Boulogne-sur-Gesse;43.285503;0.650907;ok_donnees_officielles_osm;;Donn?es officielles carburants + enrichissement OpenStreetMap/BAN;;;;;;;;
25500007;Casino;4 rue du Clos Jeune;25500;Morteau;47.057508;6.611018;ok_donnees_officielles_osm;;Donn?es officielles carburants + enrichissement OpenStreetMap/BAN;;;;;;;;
5000019;Intermarché;28, Boulevard d'Orient;05000;Gap;44.57;6.105;ok_donnees_officielles_osm;;Donn?es officielles carburants + enrichissement OpenStreetMap/BAN;;;;;;;;
19200007;Intermarché;8 AVENUE PIERRE SEMARD;19200;Ussel;45.55639;2.315242;ok_donnees_officielles_osm;;Donn?es officielles carburants + enrichissement OpenStreetMap/BAN;;;;;;;;
60120004;Total;84 Avenue du Général Frère;60120;Breteuil;49.6338278;2.2884796;ok_donnees_officielles_osm;;Donn?es officielles carburants + enrichissement OpenStreetMap/BAN;;;;;;;;
19200002;Avia;56 Avenue du Général Leclerc;19200;Ussel;45.557;2.302;ok_donnees_officielles_osm;;Donn?es officielles carburants + enrichissement OpenStreetMap/BAN;;;;;;;;
93160006;Intermarché;4 Boulevard du Maréchal Foch;93160;Noisy-le-Grand;48.8441869;2.5290949;ok_donnees_officielles_osm;;Donn?es officielles carburants + enrichissement OpenStreetMap/BAN;;;;;;;;
24260001;Intermarché;AVENUE DE LA LIBERATION;24260;Le Bugue;44.9157695;0.925106;ok_donnees_officielles_osm;;Donn?es officielles carburants + enrichissement OpenStreetMap/BAN;;;;;;;;
92130005;Esso Express;115 Avenue du Général de Gaulle;92130;Issy-les-Moulineaux;48.818;2.277;ok_donnees_officielles_osm;;Donn?es officielles carburants + enrichissement OpenStreetMap/BAN;;;;;;;;
68200018;Total Access;185 AV DE COLMAR;68200;Mulhouse;47.762;7.326;ok_donnees_officielles_osm;;Donn?es officielles carburants + enrichissement OpenStreetMap/BAN;;;;;;;;
92140005;Esso Express;448 AV GENERAL DE GAULLE;92140;Clamart;48.78;2.238;ok_donnees_officielles_osm;;Donn?es officielles carburants + enrichissement OpenStreetMap/BAN;;;;;;;;
92260001;Esso;21 Avenue Jeanne et Maurice Dolivet;92260;Fontenay-aux-Roses;48.793;2.29;ok_donnees_officielles_osm;;Donn?es officielles carburants + enrichissement OpenStreetMap/BAN;;;;;;;;
92210003;Esso;24 Rue Pasteur;92210;Saint-Cloud;48.842;2.202;ok_donnees_officielles_osm;;Donn?es officielles carburants + enrichissement OpenStreetMap/BAN;;;;;;;;
4120002;Proxi;4 rue grande;04120;La Palud-sur-Verdon;43.78;6.342;ok_donnees_officielles_osm;;Donn?es officielles carburants + enrichissement OpenStreetMap/BAN;;;;;;;;
10340001;Avia;25 Rue du Pont;10340;Les Riceys;47.9963879;4.3660909;ok_donnees_officielles_osm;;Donn?es officielles carburants + enrichissement OpenStreetMap/BAN;;;;;;;;
31150010;Auchan;RUE DES USINESCC TOULOUSE NORD;31150;Fenouillet;43.6861083;1.4028342;ok_donnees_officielles_osm;;Donn?es officielles carburants + enrichissement OpenStreetMap/BAN;;;;;;;;
83600020;;100 RDN 7 AV.DE VERDUN;83600;Fréjus;43.43809;6.719088;a_verifier_google_places;enseigne inconnue, adresse BAN eloignee des coordonnees, correspondance OpenStreetMap ambigue;Donn?es officielles carburants + enrichissement OpenStreetMap/BAN;;;;;;;;
42155001;Intermarché;RUE DE LA BRUYERE;42155;Lentigny;45.992;3.982;ok_donnees_officielles_osm;;Donn?es officielles carburants + enrichissement OpenStreetMap/BAN;;;;;;;;
26800007;TotalEnergies;AUTOROUTE A7 - AIRE PORTE LES VALENCE EST;26800;Portes-lès-Valence;44.864;4.866;a_verifier_google_places;correspondance OpenStreetMap ambigue;Donn?es officielles carburants + enrichissement OpenStreetMap/BAN;;;;;;;;
17600004;E.Leclerc;204 route de Royan;17600;Médis;45.6346758;-0.9756454;ok_donnees_officielles_osm;;Donn?es officielles carburants + enrichissement OpenStreetMap/BAN;;;;;;;;
1300004;TotalEnergies;RUE DENIS PAPIN;01300;Belley;45.7486799;5.7075515;ok_donnees_officielles_osm;;Donn?es officielles carburants + enrichissement OpenStreetMap/BAN;;;;;;;;
8130003;Carrefour;3 Rue Saint-Charles;08130;Attigny;49.479;4.577;ok_donnees_officielles_osm;;Donn?es officielles carburants + enrichissement OpenStreetMap/BAN;;;;;;;;
69380004;E.Leclerc;473 Route de la Vallée;69380;Civrieux-d'Azergues;45.856;4.704;ok_donnees_officielles_osm;;Donn?es officielles carburants + enrichissement OpenStreetMap/BAN;;;;;;;;
45190003;E.Leclerc;RN 152 Tavers;45190;Tavers;47.766;1.612;ok_donnees_officielles_osm;;Donn?es officielles carburants + enrichissement OpenStreetMap/BAN;;;;;;;;
83500007;Intermarché;Avenue Salvador Allende;83500;La Seyne-sur-Mer;43.0862937;5.8802689;ok_donnees_officielles_osm;;Donn?es officielles carburants + enrichissement OpenStreetMap/BAN;;;;;;;;
52100009;E.Leclerc;Rue des Loyes;52100;Saint-Dizier;48.627;4.973;a_verifier_google_places;adresse BAN eloignee des coordonnees;Donn?es officielles carburants + enrichissement OpenStreetMap/BAN;;;;;;;;
85430001;Système U;Impasse Bellevue;85430;Nieul-le-Dolent;46.5712;-1.50929;ok_donnees_officielles_osm;;Donn?es officielles carburants + enrichissement OpenStreetMap/BAN;;;;;;;;
35400006;Carrefour;rue de la Flaudais;35400;Saint-Malo;48.6257767;-1.9933078;ok_donnees_officielles_osm;;Donn?es officielles carburants + enrichissement OpenStreetMap/BAN;;;;;;;;
92410001;Esso;191 Rue de Versailles;92410;Ville-d'Avray;48.819;2.168;ok_donnees_officielles_osm;;Donn?es officielles carburants + enrichissement OpenStreetMap/BAN;;;;;;;;
83600030;Auchan;26 RUE DU DOCTEUR DONNADIEU;83600;Fréjus;43.431084;6.755015;ok_donnees_officielles_osm;;Donn?es officielles carburants + enrichissement OpenStreetMap/BAN;;;;;;;;
80100011;Total;3 place de l amiral courbet;80100;Abbeville;50.107867;1.83176;ok_donnees_officielles_osm;;Donn?es officielles carburants + enrichissement OpenStreetMap/BAN;;;;;;;;
79000015;;130 Avenue de NANTES;79000;Saint-Rémy;46.348104;-0.509968;a_verifier_google_places;enseigne inconnue, adresse BAN eloignee des coordonnees, aucune station OpenStreetMap proche;Donn?es officielles carburants + enrichissement OpenStreetMap/BAN;;;;;;;;
41400006;Esso;60 Route de Tours;41400;Montrichard Val de Cher;47.342;1.178;a_verifier_google_places;adresse BAN eloignee des coordonnees;Donn?es officielles carburants + enrichissement OpenStreetMap/BAN;;;;;;;;
15200004;Intermarché;Avenue de la Gare;15200;Mauriac;45.2225355;2.3407584;ok_donnees_officielles_osm;;Donn?es officielles carburants + enrichissement OpenStreetMap/BAN;;;;;;;;
84840003;U;81 Avenue de Montélimar;84840;Lapalud;44.312;4.686;ok_donnees_officielles_osm;;Donn?es officielles carburants + enrichissement OpenStreetMap/BAN;;;;;;;;
84200008;Independent;2875 Route de malaucene;84200;Carpentras;44.0811865;5.0678917;ok_donnees_officielles_osm;;Donn?es officielles carburants + enrichissement OpenStreetMap/BAN;;;;;;;;
93160004;Esso Express;2 Rue des Hauts-Châteaux;93160;Noisy-le-Grand;48.843;2.577;a_verifier_google_places;adresse BAN eloignee des coordonnees;Donn?es officielles carburants + enrichissement OpenStreetMap/BAN;;;;;;;;
93140003;Esso;205 Avenue Gallieni;93140;Bondy;48.9075885;2.4906489;ok_donnees_officielles_osm;;Donn?es officielles carburants + enrichissement OpenStreetMap/BAN;;;;;;;;
93160005;Esso Express;22 Route de Neuilly;93160;Noisy-le-Grand;48.851;2.535;ok_donnees_officielles_osm;;Donn?es officielles carburants + enrichissement OpenStreetMap/BAN;;;;;;;;
31600011;Avia;68 avenue Jacques Douzans;31600;Muret;43.4714742;1.3309049;ok_donnees_officielles_osm;;Donn?es officielles carburants + enrichissement OpenStreetMap/BAN;;;;;;;;
76371001;Auchan;Centre Commercial Le Belvédère;76371;Dieppe;49.9086603;1.0768623;ok_donnees_officielles_osm;;Donn?es officielles carburants + enrichissement OpenStreetMap/BAN;;;;;;;;
77700006;Super U;1 RUE SUZANNE MASSON;77700;Coupvray;48.8808739;2.8055993;ok_donnees_officielles_osm;;Donn?es officielles carburants + enrichissement OpenStreetMap/BAN;;;;;;;;
71230002;Intermarché;ZI de la Saule;71230;Saint-Vallier;46.648;4.34;ok_donnees_officielles_osm;;Donn?es officielles carburants + enrichissement OpenStreetMap/BAN;;;;;;;;
50480001;Total;LES FORGES;50480;Sainte-Mère-Église;49.38;-1.296;a_verifier_google_places;adresse BAN eloignee des coordonnees;Donn?es officielles carburants + enrichissement OpenStreetMap/BAN;;;;;;;;
7100006;Total;Route du 4ème Spahis;07100;Annonay;45.235;4.672;ok_donnees_officielles_osm;;Donn?es officielles carburants + enrichissement OpenStreetMap/BAN;;;;;;;;
21500002;;Rue de Dijon;21500;Montbard;47.62499;4.3466;a_verifier_google_places;enseigne inconnue, correspondance OpenStreetMap ambigue;Donn?es officielles carburants + enrichissement OpenStreetMap/BAN;;;;;;;;
33370005;Intermarché;Zone Activité les Tabernottes;33370;Yvrac;44.871;-0.469;ok_donnees_officielles_osm;;Donn?es officielles carburants + enrichissement OpenStreetMap/BAN;;;;;;;;
13011019;La Source;131 route des Camoins;13011;Marseille;43.299;5.5;ok_donnees_officielles_osm;;Donn?es officielles carburants + enrichissement OpenStreetMap/BAN;;;;;;;;
94100006;Esso Express;99/101 Avenue Foch;94100;Saint-Maur-des-Fossés;48.799;2.5;ok_donnees_officielles_osm;;Donn?es officielles carburants + enrichissement OpenStreetMap/BAN;;;;;;;;
93800003;Esso;86 Avenue de Lattre de Tassigny;93800;Épinay-sur-Seine;48.96;2.304;ok_donnees_officielles_osm;;Donn?es officielles carburants + enrichissement OpenStreetMap/BAN;;;;;;;;
94000004;Esso Express;22 Avenue Pierre Brossolette;94000;Créteil;48.791;2.462;ok_donnees_officielles_osm;;Donn?es officielles carburants + enrichissement OpenStreetMap/BAN;;;;;;;;
64520001;Elan;2 Rue Saint-Jacques;64520;Bidache;43.482;-1.144;ok_donnees_officielles_osm;;Donn?es officielles carburants + enrichissement OpenStreetMap/BAN;;;;;;;;
94170002;Esso Express;264 Avenue du Général de Gaulle;94170;Le Perreux-sur-Marne;48.851;2.495;ok_donnees_officielles_osm;;Donn?es officielles carburants + enrichissement OpenStreetMap/BAN;;;;;;;;
94190002;Esso Express;20 Rue Winston Churchill;94190;Villeneuve-Saint-Georges;48.7536987;2.4512475;ok_donnees_officielles_osm;;Donn?es officielles carburants + enrichissement OpenStreetMap/BAN;;;;;;;;
33730001;TotalEnergies;15 Rue Lafon Isore;33730;Villandraut;44.46;-0.375;ok_donnees_officielles_osm;;Donn?es officielles carburants + enrichissement OpenStreetMap/BAN;;;;;;;;
94250001;Esso Express;67 Avenue Raspail;94250;Gentilly;48.814;2.348;ok_donnees_officielles_osm;;Donn?es officielles carburants + enrichissement OpenStreetMap/BAN;;;;;;;;
77160002;E.Leclerc;Avenue de la Voulzie;77160;Provins;48.5451486;3.2893673;ok_donnees_officielles_osm;;Donn?es officielles carburants + enrichissement OpenStreetMap/BAN;;;;;;;;
16100004;E.Leclerc;105 Rue Basse Saint-Martin;16100;Cognac;45.6857072;-0.3393814;ok_donnees_officielles_osm;;Donn?es officielles carburants + enrichissement OpenStreetMap/BAN;;;;;;;;
94380002;Esso Express;ROUTE DE LA POMPADOUR;94380;Bonneuil-sur-Marne;48.765;2.478;ok_donnees_officielles_osm;;Donn?es officielles carburants + enrichissement OpenStreetMap/BAN;;;;;;;;
94370003;Esso Express;1 Rue de Paris;94370;Sucy-en-Brie;48.7733079;2.4982795;ok_donnees_officielles_osm;;Donn?es officielles carburants + enrichissement OpenStreetMap/BAN;;;;;;;;
94400003;Esso Express;159 Avenue Rouget de l'Isle;94400;Vitry-sur-Seine;48.782;2.395;ok_donnees_officielles_osm;;Donn?es officielles carburants + enrichissement OpenStreetMap/BAN;;;;;;;;
62218002;E.Leclerc;Rue de l'Abbaye;62218;Loison-sous-Lens;50.448;2.865;a_verifier_google_places;adresse BAN eloignee des coordonnees;Donn?es officielles carburants + enrichissement OpenStreetMap/BAN;;;;;;;;
13090018;TotalEnergies;1140 RTE AVIGNON QU.CELONY RN7;13090;Aix-en-Provence;43.557;5.418;a_verifier_google_places;adresse BAN eloignee des coordonnees;Donn?es officielles carburants + enrichissement OpenStreetMap/BAN;;;;;;;;
34110002;Avia;27 avenue du marechal juin;34110;Frontignan;43.4386624;3.7429771;ok_donnees_officielles_osm;;Donn?es officielles carburants + enrichissement OpenStreetMap/BAN;;;;;;;;
94600003;Esso Express;14 Boulevard de Stalingrad;94600;Thiais;48.768;2.403;ok_donnees_officielles_osm;;Donn?es officielles carburants + enrichissement OpenStreetMap/BAN;;;;;;;;
94700005;Esso;5 Avenue Léon Blum;94700;Maisons-Alfort;48.802;2.436;ok_donnees_officielles_osm;;Donn?es officielles carburants + enrichissement OpenStreetMap/BAN;;;;;;;;
51350001;Cora;Route de louvois;51350;Cormontreuil;49.2157839;4.0565289;ok_donnees_officielles_osm;;Donn?es officielles carburants + enrichissement OpenStreetMap/BAN;;;;;;;;
73300002;Eni;AVENUE DU 8 MAI 1945 LES PLANS;73300;Saint-Jean-de-Maurienne;45.269;6.367;a_verifier_google_places;adresse BAN eloignee des coordonnees;Donn?es officielles carburants + enrichissement OpenStreetMap/BAN;;;;;;;;
43290002;TotalEnergies;30 AVENUE DES CEVENNES;43290;Montfaucon-en-Velay;45.181359;4.314112;ok_donnees_officielles_osm;;Donn?es officielles carburants + enrichissement OpenStreetMap/BAN;;;;;;;;
95100030;TotalEnergies;RUE JACQUES BREL;95100;Argenteuil;48.9570356;2.2803826;ok_donnees_officielles_osm;;Donn?es officielles carburants + enrichissement OpenStreetMap/BAN;;;;;;;;
61250005;Carrefour;61 route de Bretagne;61250;Condé-sur-Sarthe;48.433336;0.062579;a_verifier_google_places;adresse BAN eloignee des coordonnees;Donn?es officielles carburants + enrichissement OpenStreetMap/BAN;;;;;;;;
6640002;U;QUARTIER LE PEYRON;06640;Saint-Jeannet;43.743573;7.146356;a_verifier_google_places;adresse BAN eloignee des coordonnees;Donn?es officielles carburants + enrichissement OpenStreetMap/BAN;;;;;;;;
95130001;Esso Express;9 Boulevard du Bel Air;95130;Franconville;48.986;2.238;ok_donnees_officielles_osm;;Donn?es officielles carburants + enrichissement OpenStreetMap/BAN;;;;;;;;
52540001;;RUE PASTEUR;62540;Marles-les-Mines;50.503;2.508;a_verifier_google_places;enseigne inconnue, correspondance OpenStreetMap ambigue;Donn?es officielles carburants + enrichissement OpenStreetMap/BAN;;;;;;;;
95220003;Esso Express;61 Boulevard DU HAVRE;95220;Herblay-sur-Seine;49.0018919;2.1794824;ok_donnees_officielles_osm;;Donn?es officielles carburants + enrichissement OpenStreetMap/BAN;;;;;;;;
68200025;Eni;151, AVENUE DE COLMAR;68200;Mulhouse;47.758431;7.33;ok_donnees_officielles_osm;;Donn?es officielles carburants + enrichissement OpenStreetMap/BAN;;;;;;;;
95400003;Esso;100 Avenue de la République;95400;Arnouville;48.982;2.431;ok_donnees_officielles_osm;;Donn?es officielles carburants + enrichissement OpenStreetMap/BAN;;;;;;;;
85700002;Système U;35 Rue Charles Largeteau;85700;Pouzauges;46.7753733;-0.8445808;ok_donnees_officielles_osm;;Donn?es officielles carburants + enrichissement OpenStreetMap/BAN;;;;;;;;
85670002;Esso;8 Rue Nationale;85670;Falleron;46.882;-1.697;ok_donnees_officielles_osm;;Donn?es officielles carburants + enrichissement OpenStreetMap/BAN;;;;;;;;
12160002;TotalEnergies;241 Avenue de Marengo;12160;Baraqueville;44.2788351;2.428912;ok_donnees_officielles_osm;;Donn?es officielles carburants + enrichissement OpenStreetMap/BAN;;;;;;;;
78885001;Carrefour;PLACE JOEL LE THEULE;78180;Montigny-le-Bretonneux;48.786;2.043;ok_donnees_officielles_osm;;Donn?es officielles carburants + enrichissement OpenStreetMap/BAN;;;;;;;;
95600002;Esso Express;5 Avenue Voltaire;95600;Eaubonne;48.994;2.28;ok_donnees_officielles_osm;;Donn?es officielles carburants + enrichissement OpenStreetMap/BAN;;;;;;;;
95570007;Esso Express;RN1;95570;Moisselles;49.041;2.343;a_verifier_google_places;adresse BAN eloignee des coordonnees;Donn?es officielles carburants + enrichissement OpenStreetMap/BAN;;;;;;;;
54470002;Carrefour;ZA de la Louviére;54470;Thiaucourt-Regniéville;48.9463726;5.8752984;ok_donnees_officielles_osm;;Donn?es officielles carburants + enrichissement OpenStreetMap/BAN;;;;;;;;
63122001;Esso;1 Rue du Château - D2089;63122;Saint-Genès-Champanelle;45.7059388;3.0231027;ok_donnees_officielles_osm;;Donn?es officielles carburants + enrichissement OpenStreetMap/BAN;;;;;;;;
95800003;Esso;Boulevard d'Osny;95800;Cergy;49.052994;2.046328;ok_donnees_officielles_osm;;Donn?es officielles carburants + enrichissement OpenStreetMap/BAN;;;;;;;;
27310008;Carrefour Market;405 RUE DES PORTES;27310;Bourg-Achard;49.356391;0.815466;ok_donnees_officielles_osm;;Donn?es officielles carburants + enrichissement OpenStreetMap/BAN;;;;;;;;
63140001;Total;65 avenue de Belgique;63140;Châtel-Guyon;45.923;3.063;ok_donnees_officielles_osm;;Donn?es officielles carburants + enrichissement OpenStreetMap/BAN;;;;;;;;
74800001;TotalEnergies;Avenue de la Libération;74800;La Roche-sur-Foron;46.06989;6.30528;a_verifier_google_places;correspondance OpenStreetMap ambigue;Donn?es officielles carburants + enrichissement OpenStreetMap/BAN;;;;;;;;
39120002;;Route de Longwy;39120;Chaussin;46.958;5.409;a_verifier_google_places;enseigne inconnue, adresse BAN eloignee des coordonnees, correspondance OpenStreetMap ambigue;Donn?es officielles carburants + enrichissement OpenStreetMap/BAN;;;;;;;;
17201001;E.Leclerc;Rue Laurent-Antoine de Lavoisier;17200;Royan;45.631606;-0.99256;ok_donnees_officielles_osm;;Donn?es officielles carburants + enrichissement OpenStreetMap/BAN;;;;;;;;
54500008;TotalEnergies;2 AVENUE DE BOURGOGNE;54500;Vandœuvre-lès-Nancy;48.6529419;6.1510041;ok_donnees_officielles_osm;;Donn?es officielles carburants + enrichissement OpenStreetMap/BAN;;;;;;;;
31330005;Esso;18 Av. Lazare Carnot;31330;Grenade;43.768739;1.295984;ok_donnees_officielles_osm;;Donn?es officielles carburants + enrichissement OpenStreetMap/BAN;;;;;;;;
83520001;Total;QUARTIER LA GARONNE;83520;Roquebrune-sur-Argens;43.439329;6.654952;a_verifier_google_places;adresse BAN eloignee des coordonnees;Donn?es officielles carburants + enrichissement OpenStreetMap/BAN;;;;;;;;
79370001;Intermarché;22 rue des Acacias;79370;Celles-sur-Belle;46.2673218;-0.2245594;ok_donnees_officielles_osm;;Donn?es officielles carburants + enrichissement OpenStreetMap/BAN;;;;;;;;
84220003;Relais de la Pioche;ZA PIED ROUSSET LES DEVENS;84220;Roussillon;43.864;5.291;ok_donnees_officielles_osm;;Donn?es officielles carburants + enrichissement OpenStreetMap/BAN;;;;;;;;
65700002;Super U;centre commercial Val d'Adour;65700;Maubourguet;43.4430512;0.0422297;ok_donnees_officielles_osm;;Donn?es officielles carburants + enrichissement OpenStreetMap/BAN;;;;;;;;
9210001;Carrefour;La Sinsole;09210;Lézat-sur-Lèze;43.2817837;1.3471254;ok_donnees_officielles_osm;;Donn?es officielles carburants + enrichissement OpenStreetMap/BAN;;;;;;;;
62880001;Carrefour Market;53 Rue Joseph Mattei;62880;Annay;50.459;2.885;ok_donnees_officielles_osm;;Donn?es officielles carburants + enrichissement OpenStreetMap/BAN;;;;;;;;
51300006;Super U;208 AVENUE DE CHAMPAGNE;51300;Frignicourt;48.7139121;4.5892431;ok_donnees_officielles_osm;;Donn?es officielles carburants + enrichissement OpenStreetMap/BAN;;;;;;;;
72380001;Système U;zone artisanale Prairie des Moulins;72380;Sainte-Jamme-sur-Sarthe;48.145;0.17;ok_donnees_officielles_osm;;Donn?es officielles carburants + enrichissement OpenStreetMap/BAN;;;;;;;;
19100014;Esso;Boulevard Brune;19100;Brive-la-Gaillarde;45.1533767;1.5339135;ok_donnees_officielles_osm;;Donn?es officielles carburants + enrichissement OpenStreetMap/BAN;;;;;;;;
40465002;Intermarché;642, avenue Robert Labeyrie;40465;Pontonx-sur-l'Adour;43.7845464;-0.9329383;ok_donnees_officielles_osm;;Donn?es officielles carburants + enrichissement OpenStreetMap/BAN;;;;;;;;
3800006;Intermarché;12 avenue des Portes Occitanes;03800;Gannat;46.08;3.201;ok_donnees_officielles_osm;;Donn?es officielles carburants + enrichissement OpenStreetMap/BAN;;;;;;;;
1640003;TotalEnergies;573 route de Geneve;01640;Saint-Jean-le-Vieux;46.034876;5.389453;ok_donnees_officielles_osm;;Donn?es officielles carburants + enrichissement OpenStreetMap/BAN;;;;;;;;
66028001;TotalEnergies;AVENUE D'ESPAGNE;66000;Perpignan;42.6777889;2.8906554;ok_donnees_officielles_osm;;Donn?es officielles carburants + enrichissement OpenStreetMap/BAN;;;;;;;;
21150002;Avia;Avenue de Dijon;21150;Venarey-les-Laumes;47.5369037;4.4612175;ok_donnees_officielles_osm;;Donn?es officielles carburants + enrichissement OpenStreetMap/BAN;;;;;;;;
78390003;E.Leclerc;11 Avenue Jean Jaurès;78390;Bois-d'Arcy;48.7982625;2.0357641;ok_donnees_officielles_osm;;Donn?es officielles carburants + enrichissement OpenStreetMap/BAN;;;;;;;;
12100006;E.Leclerc;Avenue de Saint Affrique;12100;Creissels;44.081;3.042;ok_donnees_officielles_osm;;Donn?es officielles carburants + enrichissement OpenStreetMap/BAN;;;;;;;;
71210010;Avia;45 avenue de la République;71210;Montchanin;46.753;4.468;ok_donnees_officielles_osm;;Donn?es officielles carburants + enrichissement OpenStreetMap/BAN;;;;;;;;
61230005;Peugeot DKV;ROUTE D'ALENCON;61230;Gacé;48.789;0.294;ok_donnees_officielles_osm;;Donn?es officielles carburants + enrichissement OpenStreetMap/BAN;;;;;;;;
83600024;BP;1239 AV DE LATTRE DE TASSIGNY;83600;Fréjus;43.43;6.758;ok_donnees_officielles_osm;;Donn?es officielles carburants + enrichissement OpenStreetMap/BAN;;;;;;;;
10360001;Avia;14 rue du bocage;10360;Essoyes;48.06064;4.538033;ok_donnees_officielles_osm;;Donn?es officielles carburants + enrichissement OpenStreetMap/BAN;;;;;;;;
21320007;Eni;A6 AIRE DES LOCHERES;21320;Éguilly;47.3098325;4.5013158;ok_donnees_officielles_osm;;Donn?es officielles carburants + enrichissement OpenStreetMap/BAN;;;;;;;;
33320003;Intermarché;170 Avenue du Taillan Médoc;33320;Eysines;44.8796235;-0.6478763;ok_donnees_officielles_osm;;Donn?es officielles carburants + enrichissement OpenStreetMap/BAN;;;;;;;;
69500009;TotalEnergies;BD LAURENT BONNEVAY;69500;Bron;45.739;4.905;a_verifier_google_places;adresse BAN eloignee des coordonnees;Donn?es officielles carburants + enrichissement OpenStreetMap/BAN;;;;;;;;
68270003;Esso;Rue de Kingersheim;68270;Wittenheim;47.8059668;7.337658;ok_donnees_officielles_osm;;Donn?es officielles carburants + enrichissement OpenStreetMap/BAN;;;;;;;;
49330004;;ROUTE D'ANGERS;49330;Les Hauts-d'Anjou;47.664215;-0.56046;a_verifier_google_places;enseigne inconnue, adresse BAN eloignee des coordonnees, aucune station OpenStreetMap proche;Donn?es officielles carburants + enrichissement OpenStreetMap/BAN;;;;;;;;
33460003;Total Access;13 avenue de soubeyran;33460;Arsac;44.9933092;-0.6936916;ok_donnees_officielles_osm;;Donn?es officielles carburants + enrichissement OpenStreetMap/BAN;;;;;;;;
33550002;Intermarché;1 Route de Créon;33550;Langoiran;44.71373;-0.39435;ok_donnees_officielles_osm;;Donn?es officielles carburants + enrichissement OpenStreetMap/BAN;;;;;;;;
81000003;Total;RouTE DE Saint JUERY LA RENAUDIE;81000;Albi;43.938;2.183;a_verifier_google_places;adresse BAN eloignee des coordonnees;Donn?es officielles carburants + enrichissement OpenStreetMap/BAN;;;;;;;;
29400003;Esso Express;137 Avenue Maréchal Foch;29400;Landivisiau;48.515;-4.054;ok_donnees_officielles_osm;;Donn?es officielles carburants + enrichissement OpenStreetMap/BAN;;;;;;;;
72110002;Intermarché;3 rue du Perche;72110;Saint-Cosme-en-Vairais;48.277;0.461;ok_donnees_officielles_osm;;Donn?es officielles carburants + enrichissement OpenStreetMap/BAN;;;;;;;;
85150001;U;1 rue des Blés, La Mothe Achard;85150;Les Achards;46.607;-1.664;a_verifier_google_places;correspondance OpenStreetMap ambigue;Donn?es officielles carburants + enrichissement OpenStreetMap/BAN;;;;;;;;
47000009;Netto;NETTO, 530 AVENUE LEON BLUM;47000;Agen;44.211;0.647;ok_donnees_officielles_osm;;Donn?es officielles carburants + enrichissement OpenStreetMap/BAN;;;;;;;;
91190012;BP;27 AV DU GENERAL LECLERC;91190;Gif-sur-Yvette;48.703;2.128;ok_donnees_officielles_osm;;Donn?es officielles carburants + enrichissement OpenStreetMap/BAN;;;;;;;;
66250001;Intermarché;Route du Barcarès;66250;Saint-Laurent-de-la-Salanque;42.7735994;3.014064;ok_donnees_officielles_osm;;Donn?es officielles carburants + enrichissement OpenStreetMap/BAN;;;;;;;;
66510001;Total;Route d'Amélie les Bains;66150;Arles-sur-Tech;42.46292;2.63868;a_verifier_google_places;adresse BAN eloignee des coordonnees;Donn?es officielles carburants + enrichissement OpenStreetMap/BAN;;;;;;;;
45320005;Esso;4 ROUTE DE SENS;45320;Courtenay;48.041;3.063;ok_donnees_officielles_osm;;Donn?es officielles carburants + enrichissement OpenStreetMap/BAN;;;;;;;;
83150001;Carrefour;1103 Avenue Dei Reganeu;83150;Bandol;43.153967;5.744358;ok_donnees_officielles_osm;;Donn?es officielles carburants + enrichissement OpenStreetMap/BAN;;;;;;;;
73310002;Système U;ZAE DE SAUMONT;73310;Ruffieux;45.846422;5.837168;a_verifier_google_places;adresse BAN eloignee des coordonnees;Donn?es officielles carburants + enrichissement OpenStreetMap/BAN;;;;;;;;
79100009;Eirana;2 PASSAGE DU COMMERCE;79100;Thouars;46.992655;-0.236255;ok_donnees_officielles_osm;;Donn?es officielles carburants + enrichissement OpenStreetMap/BAN;;;;;;;;
71400012;Total Access;15, AVENUE DE LA REPUBLIQUE;71400;Autun;46.9561637;4.2960576;ok_donnees_officielles_osm;;Donn?es officielles carburants + enrichissement OpenStreetMap/BAN;;;;;;;;
50500003;E.Leclerc;Chemin de la Chuque;50500;Carentan-les-Marais;49.3018428;-1.2299176;ok_donnees_officielles_osm;;Donn?es officielles carburants + enrichissement OpenStreetMap/BAN;;;;;;;;
57100007;Total;2 RUE STEPHEN LIEGEARD ROND POINT MERLIN;57100;Thionville;49.352;6.16;ok_donnees_officielles_osm;;Donn?es officielles carburants + enrichissement OpenStreetMap/BAN;;;;;;;;
30700003;Total;10 CROIX PALMIER;30700;Uzès;44.00805;4.41802;ok_donnees_officielles_osm;;Donn?es officielles carburants + enrichissement OpenStreetMap/BAN;;;;;;;;
29590001;Super U;ZONE DE QUIELLA;29590;Le Faou;48.298;-4.17;ok_donnees_officielles_osm;;Donn?es officielles carburants + enrichissement OpenStreetMap/BAN;;;;;;;;
57940001;Carrefour;de l'Arc Mosellan;57940;Metzervisse;49.32021;6.278285;ok_donnees_officielles_osm;;Donn?es officielles carburants + enrichissement OpenStreetMap/BAN;;;;;;;;
47800004;Elan;12 place Martignac;47800;Miramont-de-Guyenne;44.6;0.359;ok_donnees_officielles_osm;;Donn?es officielles carburants + enrichissement OpenStreetMap/BAN;;;;;;;;
8210001;;Avenue de la Paix;08210;Mouzon;49.61023;5.07788;a_verifier_google_places;enseigne inconnue, adresse BAN eloignee des coordonnees, correspondance OpenStreetMap ambigue;Donn?es officielles carburants + enrichissement OpenStreetMap/BAN;;;;;;;;
33370007;;Bois Menu - Val Laurence;33370;Fargues-Saint-Hilaire;44.825;-0.444;a_verifier_google_places;enseigne inconnue, correspondance OpenStreetMap ambigue;Donn?es officielles carburants + enrichissement OpenStreetMap/BAN;;;;;;;;
13420001;Avia;553 ROUTE DU VAISSEAU;13420;Gémenos;43.279;5.615;ok_donnees_officielles_osm;;Donn?es officielles carburants + enrichissement OpenStreetMap/BAN;;;;;;;;
62219001;Auchan;Avenue des Frais Fonds;62219;Arques;50.735;2.274;a_verifier_google_places;adresse BAN eloignee des coordonnees;Donn?es officielles carburants + enrichissement OpenStreetMap/BAN;;;;;;;;
1750001;Intermarché;223 route de Bourg-en-Bresse;01750;Replonges;46.299;4.881;ok_donnees_officielles_osm;;Donn?es officielles carburants + enrichissement OpenStreetMap/BAN;;;;;;;;
91430003;;ROUTE NATIONALE 444;91430;Igny;48.735;2.225;a_verifier_google_places;enseigne inconnue, adresse BAN eloignee des coordonnees, aucune station OpenStreetMap proche;Donn?es officielles carburants + enrichissement OpenStreetMap/BAN;;;;;;;;
44120005;Total Access;BOULEVARD DE L'EUROPE;44120;Vertou;47.173;-1.474;a_verifier_google_places;adresse BAN eloignee des coordonnees;Donn?es officielles carburants + enrichissement OpenStreetMap/BAN;;;;;;;;
28330003;Proxi;16 Avenue Jean Moulin;28330;Authon-du-Perche;48.194;0.899;ok_donnees_officielles_osm;;Donn?es officielles carburants + enrichissement OpenStreetMap/BAN;;;;;;;;
4320001;;STATION RN 4202;04320;Entrevaux;43.949;6.81;a_verifier_google_places;enseigne inconnue, adresse BAN eloignee des coordonnees, aucune station OpenStreetMap proche;Donn?es officielles carburants + enrichissement OpenStreetMap/BAN;;;;;;;;
11150001;Carrefour;zae avenue de la preuilhe;11150;Bram;43.241;2.101;a_verifier_google_places;adresse BAN eloignee des coordonnees;Donn?es officielles carburants + enrichissement OpenStreetMap/BAN;;;;;;;;
13180001;Eni;AIRE DE REBUTY A55;13180;Le Rove;43.392296;5.256942;a_verifier_google_places;adresse BAN eloignee des coordonnees;Donn?es officielles carburants + enrichissement OpenStreetMap/BAN;;;;;;;;
22120005;Intermarché;Rue de l'Argentaie;22120;Quessoy;48.422;-2.656;ok_donnees_officielles_osm;;Donn?es officielles carburants + enrichissement OpenStreetMap/BAN;;;;;;;;
82240001;Dyneff;1, AVENUE MARCEL LACASSAGNE;82240;Septfonds;44.17787;1.62304;ok_donnees_officielles_osm;;Donn?es officielles carburants + enrichissement OpenStreetMap/BAN;;;;;;;;
26140003;Intermarché;LES BUIS;26140;Anneyron;45.274;4.897;a_verifier_google_places;adresse BAN eloignee des coordonnees;Donn?es officielles carburants + enrichissement OpenStreetMap/BAN;;;;;;;;
34920001;Carrefour;Route de Jacou;34920;Le Crès;43.659613;3.93617;ok_donnees_officielles_osm;;Donn?es officielles carburants + enrichissement OpenStreetMap/BAN;;;;;;;;
5230008;Total Access;RN 94 LA GRANDE ILE;05230;Chorges;44.551639;6.255591;a_verifier_google_places;adresse BAN eloignee des coordonnees, correspondance OpenStreetMap ambigue;Donn?es officielles carburants + enrichissement OpenStreetMap/BAN;;;;;;;;
33000014;Esso Express;26 Boulevard Pierre 1er;33000;Bordeaux;44.855;-0.592;ok_donnees_officielles_osm;;Donn?es officielles carburants + enrichissement OpenStreetMap/BAN;;;;;;;;
1630005;Avia;50 Rue de la Faucille;01630;Saint-Genis-Pouilly;46.25355;6.027033;ok_donnees_officielles_osm;;Donn?es officielles carburants + enrichissement OpenStreetMap/BAN;;;;;;;;
10500002;Intermarché;Rue du Général P.decouz;10500;Brienne-le-Château;48.399;4.518;ok_donnees_officielles_osm;;Donn?es officielles carburants + enrichissement OpenStreetMap/BAN;;;;;;;;
47140002;Intermarché;Avenue de la Myre Mory;47140;Saint-Sylvestre-sur-Lot;44.3956442;0.8059649;ok_donnees_officielles_osm;;Donn?es officielles carburants + enrichissement OpenStreetMap/BAN;;;;;;;;
71700009;TotalEnergies;22 avenue du Clos Mouron;71700;Tournus;46.573;4.904;ok_donnees_officielles_osm;;Donn?es officielles carburants + enrichissement OpenStreetMap/BAN;;;;;;;;
42590001;TotalEnergies;661 rue de la République;42590;Neulise;45.908809;4.1785;ok_donnees_officielles_osm;;Donn?es officielles carburants + enrichissement OpenStreetMap/BAN;;;;;;;;
93410002;Esso;64 Rue de Meaux;93410;Vaujours;48.935;2.567;ok_donnees_officielles_osm;;Donn?es officielles carburants + enrichissement OpenStreetMap/BAN;;;;;;;;
93300001;BP;43 Avenue du Président Roosevelt;93300;Aubervilliers;48.918;2.379;ok_donnees_officielles_osm;;Donn?es officielles carburants + enrichissement OpenStreetMap/BAN;;;;;;;;
4360001;Total;QUARTIER SAINT JEAN;04360;Moustiers-Sainte-Marie;43.844;6.215;a_verifier_google_places;adresse BAN eloignee des coordonnees;Donn?es officielles carburants + enrichissement OpenStreetMap/BAN;;;;;;;;
15700001;Avia;29 Avenue des Estourocs;15700;Pleaux;45.133;2.22;ok_donnees_officielles_osm;;Donn?es officielles carburants + enrichissement OpenStreetMap/BAN;;;;;;;;
76320002;E.Leclerc;Route de Pont-de-l'Arche;76320;Saint-Pierre-lès-Elbeuf;49.29;1.04;a_verifier_google_places;adresse BAN eloignee des coordonnees;Donn?es officielles carburants + enrichissement OpenStreetMap/BAN;;;;;;;;
85340001;Système U;73 Rue du 8 Mai 1945;85340;Les Sables-d'Olonne;46.543;-1.772;ok_donnees_officielles_osm;;Donn?es officielles carburants + enrichissement OpenStreetMap/BAN;;;;;;;;
45410001;Intermarché;130 RUE DES EPIS;45410;Artenay;48.0812433;1.8650106;ok_donnees_officielles_osm;;Donn?es officielles carburants + enrichissement OpenStreetMap/BAN;;;;;;;;
44780002;Spar;la gargouille;44780;Missillac;47.482823;-2.161394;ok_donnees_officielles_osm;;Donn?es officielles carburants + enrichissement OpenStreetMap/BAN;;;;;;;;
11160003;Carrefour;Avenue Ernest Ferroul;11160;Peyriac-Minervois;43.284584;2.574781;a_verifier_google_places;adresse BAN eloignee des coordonnees;Donn?es officielles carburants + enrichissement OpenStreetMap/BAN;;;;;;;;
68200019;Total Access;238 BIS RUE DE BELFORT DORNACH;68200;Mulhouse;47.73843;7.294195;ok_donnees_officielles_osm;;Donn?es officielles carburants + enrichissement OpenStreetMap/BAN;;;;;;;;
8200005;Total;14 Avenue Pasteur;08200;Sedan;49.6993383;4.9269062;ok_donnees_officielles_osm;;Donn?es officielles carburants + enrichissement OpenStreetMap/BAN;;;;;;;;
62380001;Total;57 Avenue Bernard Chochoy;62380;Lumbres;50.70998;2.12748;ok_donnees_officielles_osm;;Donn?es officielles carburants + enrichissement OpenStreetMap/BAN;;;;;;;;
88250003;;2 bis route de Cornimont;88250;Rochesson;48.004;6.834;a_verifier_google_places;enseigne inconnue, adresse BAN eloignee des coordonnees, aucune station OpenStreetMap proche;Donn?es officielles carburants + enrichissement OpenStreetMap/BAN;;;;;;;;
22500003;TotalEnergies;Rue Raymond Pellier Route De Lanvollon, D7;22500;Paimpol;48.771072;-3.040015;ok_donnees_officielles_osm;;Donn?es officielles carburants + enrichissement OpenStreetMap/BAN;;;;;;;;
50800004;Station service communale;29 Le Bourg;50800;La Lande-d'Airou;48.816;-1.29;ok_donnees_officielles_osm;;Donn?es officielles carburants + enrichissement OpenStreetMap/BAN;;;;;;;;
28700004;U;Zac du Pays Alnelois;28700;Auneau-Bleury-Saint-Symphorien;48.477085;1.767638;ok_donnees_officielles_osm;;Donn?es officielles carburants + enrichissement OpenStreetMap/BAN;;;;;;;;
88270001;Intermarché;Rue des Grands Jardins;88270;Dompaire;48.22;6.224;ok_donnees_officielles_osm;;Donn?es officielles carburants + enrichissement OpenStreetMap/BAN;;;;;;;;
10000006;Casino;3 Rue de la Mission;10000;Troyes;48.2883095;4.0753598;ok_donnees_officielles_osm;;Donn?es officielles carburants + enrichissement OpenStreetMap/BAN;;;;;;;;
85170009;Système U;2 RUE DE LA BRACHETIERE;85170;Le Poiré-sur-Vie;46.765;-1.505;ok_donnees_officielles_osm;;Donn?es officielles carburants + enrichissement OpenStreetMap/BAN;;;;;;;;
79170001;Intermarché;Avenue de Royan;79170;Brioux-sur-Boutonne;46.14;-0.221;ok_donnees_officielles_osm;;Donn?es officielles carburants + enrichissement OpenStreetMap/BAN;;;;;;;;
95570009;BP;9 RD 104;95570;Attainville;49.06;2.348;a_verifier_google_places;adresse BAN eloignee des coordonnees;Donn?es officielles carburants + enrichissement OpenStreetMap/BAN;;;;;;;;
15100013;Total;34 avenue de Verdun;15100;Saint-Flour;45.031;3.093;ok_donnees_officielles_osm;;Donn?es officielles carburants + enrichissement OpenStreetMap/BAN;;;;;;;;
95310010;BP;52 RUE DE PARIS;95310;Saint-Ouen-l'Aumône;49.04;2.116;ok_donnees_officielles_osm;;Donn?es officielles carburants + enrichissement OpenStreetMap/BAN;;;;;;;;
30300006;TotalEnergies;RN 113;30300;Fourques;43.691;4.605;a_verifier_google_places;adresse BAN eloignee des coordonnees;Donn?es officielles carburants + enrichissement OpenStreetMap/BAN;;;;;;;;
34000017;Eni;ZAC DE TOURNEZY;34000;Montpellier;43.578845;3.876762;a_verifier_google_places;adresse BAN eloignee des coordonnees;Donn?es officielles carburants + enrichissement OpenStreetMap/BAN;;;;;;;;
64150008;Carrefour;CHEMIN DEPARTEMENTAL 533;64150;Mourenx;43.385654;-0.611296;a_verifier_google_places;adresse BAN eloignee des coordonnees;Donn?es officielles carburants + enrichissement OpenStreetMap/BAN;;;;;;;;
95610007;BP;RN184, direction St germain;95610;Éragny;49.026;2.103;a_verifier_google_places;adresse BAN eloignee des coordonnees, correspondance OpenStreetMap ambigue;Donn?es officielles carburants + enrichissement OpenStreetMap/BAN;;;;;;;;
42660001;Avia;28 RUE DU FOREZ;42660;Saint-Genest-Malifaux;45.342869;4.420786;ok_donnees_officielles_osm;;Donn?es officielles carburants + enrichissement OpenStreetMap/BAN;;;;;;;;
47210001;Intermarché;Route de castillonnes;47210;Villeréal;44.6354406;0.7380608;ok_donnees_officielles_osm;;Donn?es officielles carburants + enrichissement OpenStreetMap/BAN;;;;;;;;
62820003;Total Access;ROUTE DE CARVIN;62820;Libercourt;50.486;2.997;a_verifier_google_places;adresse BAN eloignee des coordonnees;Donn?es officielles carburants + enrichissement OpenStreetMap/BAN;;;;;;;;
8000007;Intermarché;69 Rue de Monthermé;08000;Charleville-Mézières;49.785;4.713;ok_donnees_officielles_osm;;Donn?es officielles carburants + enrichissement OpenStreetMap/BAN;;;;;;;;
44270001;Système U;Boulevard des Prises;44270;Machecoul-Saint-Même;46.999;-1.817;a_verifier_google_places;adresse BAN eloignee des coordonnees;Donn?es officielles carburants + enrichissement OpenStreetMap/BAN;;;;;;;;
44110002;Total;16 Rue du Général Patton;44110;Châteaubriant;47.705;-1.389;ok_donnees_officielles_osm;;Donn?es officielles carburants + enrichissement OpenStreetMap/BAN;;;;;;;;
20248001;Total;MACINAGGIO;20248;Rogliano;42.95667;9.44536;a_verifier_google_places;adresse BAN eloignee des coordonnees;Donn?es officielles carburants + enrichissement OpenStreetMap/BAN;;;;;;;;
56200004;Casino;ZAC du RAHUN;56200;La Gacilly;47.778788;-2.126027;a_verifier_google_places;adresse BAN eloignee des coordonnees;Donn?es officielles carburants + enrichissement OpenStreetMap/BAN;;;;;;;;
70300012;Intermarché;AVENUE MARECHAL TURENNE;70300;Luxeuil-les-Bains;47.8108016;6.3631444;ok_donnees_officielles_osm;;Donn?es officielles carburants + enrichissement OpenStreetMap/BAN;;;;;;;;
33127002;TotalEnergies;1289 Avenue de Pierroton;33127;Saint-Jean-d'Illac;44.8002796;-0.7777717;ok_donnees_officielles_osm;;Donn?es officielles carburants + enrichissement OpenStreetMap/BAN;;;;;;;;
9270003;;LIEU DIT LE RAUNIER;09270;Mazères;43.251;1.678;a_verifier_google_places;enseigne inconnue, adresse BAN eloignee des coordonnees, aucune station OpenStreetMap proche;Donn?es officielles carburants + enrichissement OpenStreetMap/BAN;;;;;;;;
11300003;Esso Express;23 AVENUE CAMILLE BOUCHE;11300;Limoux;43.059;2.214;ok_donnees_officielles_osm;;Donn?es officielles carburants + enrichissement OpenStreetMap/BAN;;;;;;;;
11800002;Super U;RN 113;11800;Trèbes;43.203;2.443;a_verifier_google_places;adresse BAN eloignee des coordonnees;Donn?es officielles carburants + enrichissement OpenStreetMap/BAN;;;;;;;;
31450004;Système U;ZA DE LA BALME;31450;Belberaud;43.5056386;1.5563347;ok_donnees_officielles_osm;;Donn?es officielles carburants + enrichissement OpenStreetMap/BAN;;;;;;;;
83200005;TotalEnergies;508 av Marechal foch;83200;Toulon;43.127623;5.9197325;ok_donnees_officielles_osm;;Donn?es officielles carburants + enrichissement OpenStreetMap/BAN;;;;;;;;
28500001;Hyper U;C C PLEIN SUD - RN 154;28500;Vernouillet;48.7164822;1.3680246;ok_donnees_officielles_osm;;Donn?es officielles carburants + enrichissement OpenStreetMap/BAN;;;;;;;;
6670010;Elan;483 AVENUE PORTE DES ALPES;06670;Levens;43.855493;7.197333;ok_donnees_officielles_osm;;Donn?es officielles carburants + enrichissement OpenStreetMap/BAN;;;;;;;;
13270005;Relais des Pins;Avenue Georges Pompidou;13270;Fos-sur-Mer;43.4523654;4.9397343;ok_donnees_officielles_osm;;Donn?es officielles carburants + enrichissement OpenStreetMap/BAN;;;;;;;;
13013014;Eni;59 Avenue de Saint-Just;13013;Marseille;43.317;5.404;ok_donnees_officielles_osm;;Donn?es officielles carburants + enrichissement OpenStreetMap/BAN;;;;;;;;
28210003;Total;19 Rue de Verdun;28210;Coulombs;48.65;1.538;ok_donnees_officielles_osm;;Donn?es officielles carburants + enrichissement OpenStreetMap/BAN;;;;;;;;
1390011;Shell;AIRE DE MIONNAY OUEST;01390;Mionnay;45.885506;4.893622;a_verifier_google_places;adresse BAN eloignee des coordonnees;Donn?es officielles carburants + enrichissement OpenStreetMap/BAN;;;;;;;;
26270009;Dyneff;AUTOROUTE A7, AIRE DE SAULCE;26270;Saulce-sur-Rhône;44.72016;4.787017;a_verifier_google_places;adresse BAN eloignee des coordonnees;Donn?es officielles carburants + enrichissement OpenStreetMap/BAN;;;;;;;;
69250009;TotalEnergies;28 AVENUE BURDEAU;69250;Neuville-sur-Saône;45.872;4.839;ok_donnees_officielles_osm;;Donn?es officielles carburants + enrichissement OpenStreetMap/BAN;;;;;;;;
44400006;Intermarché;29 Rue de la Blordière;44400;Rezé;47.18;-1.533;ok_donnees_officielles_osm;;Donn?es officielles carburants + enrichissement OpenStreetMap/BAN;;;;;;;;
44360007;E.Leclerc;LIEU DIT TOURNEBRIDE;44360;Saint-Étienne-de-Montluc;47.2779155;-1.7196437;ok_donnees_officielles_osm;;Donn?es officielles carburants + enrichissement OpenStreetMap/BAN;;;;;;;;
82500002;Intermarché;Route du Blanc - Voie de Contournement;82500;Beaumont-de-Lomagne;43.878;0.988;a_verifier_google_places;adresse BAN eloignee des coordonnees;Donn?es officielles carburants + enrichissement OpenStreetMap/BAN;;;;;;;;
34540002;Total;Route de Sète;34540;Balaruc-les-Bains;43.4427238;3.6968474;ok_donnees_officielles_osm;;Donn?es officielles carburants + enrichissement OpenStreetMap/BAN;;;;;;;;
38640001;Carrefour;Avenue de la Ridelet;38640;Claix;45.119;5.693;ok_donnees_officielles_osm;;Donn?es officielles carburants + enrichissement OpenStreetMap/BAN;;;;;;;;
94350003;Esso;75 RUE DE NOISY;94350;Villiers-sur-Marne;48.834;2.547;ok_donnees_officielles_osm;;Donn?es officielles carburants + enrichissement OpenStreetMap/BAN;;;;;;;;
95230010;Total;63 AVENUE DE PARIS;95230;Soisy-sous-Montmorency;48.990754;2.289238;ok_donnees_officielles_osm;;Donn?es officielles carburants + enrichissement OpenStreetMap/BAN;;;;;;;;
15600001;Total;Avenue de Bagnac;15600;Maurs;44.7088703;2.1959733;ok_donnees_officielles_osm;;Donn?es officielles carburants + enrichissement OpenStreetMap/BAN;;;;;;;;
13500001;TotalEnergies;Avenue Julien Olive Canto-Perdrix;13500;Martigues;43.4197829;5.0556372;ok_donnees_officielles_osm;;Donn?es officielles carburants + enrichissement OpenStreetMap/BAN;;;;;;;;
18000001;Carrefour Market;AVENUE DE LATTRE DE TASSIGNY;18000;Bourges;47.103;2.41;a_verifier_google_places;adresse BAN eloignee des coordonnees;Donn?es officielles carburants + enrichissement OpenStreetMap/BAN;;;;;;;;
91700006;Total;70 ROUTE DE CORBEIL;91700;Sainte-Geneviève-des-Bois;48.6467145;2.3351616;ok_donnees_officielles_osm;;Donn?es officielles carburants + enrichissement OpenStreetMap/BAN;;;;;;;;
75016026;Eni;4 AVENUE FOCH;75016;Paris;48.87366;2.292015;ok_donnees_officielles_osm;;Donn?es officielles carburants + enrichissement OpenStreetMap/BAN;;;;;;;;
55000005;Intermarché;4 IMPASSE DE LA VARENNE;55000;Fains-Véel;48.787199;5.137608;ok_donnees_officielles_osm;;Donn?es officielles carburants + enrichissement OpenStreetMap/BAN;;;;;;;;
14500012;Intermarché;RUE ALPHONSE SAVEY;14500;Vire Normandie;48.855352;-0.865099;ok_donnees_officielles_osm;;Donn?es officielles carburants + enrichissement OpenStreetMap/BAN;;;;;;;;
28160004;Esso;AUTOROUTE A11 OCEANE;28160;Dampierre-sous-Brou;48.2393136;1.0815179;ok_donnees_officielles_osm;;Donn?es officielles carburants + enrichissement OpenStreetMap/BAN;;;;;;;;
12300005;Super U;280 Rue de la Renaissance;12300;Decazeville;44.559131;2.258125;ok_donnees_officielles_osm;;Donn?es officielles carburants + enrichissement OpenStreetMap/BAN;;;;;;;;
1480006;Intermarché;56 CHEMIN DU PLUMERET;01480;Frans;45.9842976;4.7778088;ok_donnees_officielles_osm;;Donn?es officielles carburants + enrichissement OpenStreetMap/BAN;;;;;;;;
91600005;TotalEnergies;35/37 RUE HENRI DUNANT;91600;Savigny-sur-Orge;48.68;2.342;ok_donnees_officielles_osm;;Donn?es officielles carburants + enrichissement OpenStreetMap/BAN;;;;;;;;
69500008;Total;16 AV F ROOSEVELT;69500;Bron;45.738;4.894;ok_donnees_officielles_osm;;Donn?es officielles carburants + enrichissement OpenStreetMap/BAN;;;;;;;;
73390007;Eni;AIRE DE L'ARCLUSAZ;73390;Châteauneuf;45.548889;6.157509;a_verifier_google_places;adresse BAN eloignee des coordonnees;Donn?es officielles carburants + enrichissement OpenStreetMap/BAN;;;;;;;;
42220004;TotalEnergies;17 BOULEVARD JEAN LOUIS RICHARD;42220;Bourg-Argental;45.3;4.582;ok_donnees_officielles_osm;;Donn?es officielles carburants + enrichissement OpenStreetMap/BAN;;;;;;;;
72400017;Eni;AUT A11 AIRE DE LA FERTE BERNARD;72400;Villaines-la-Gonais;48.124964;0.622104;ok_donnees_officielles_osm;;Donn?es officielles carburants + enrichissement OpenStreetMap/BAN;;;;;;;;
59110001;Carrefour;Rue du Pré Catelan;59110;La Madeleine;50.653414;3.06161;ok_donnees_officielles_osm;;Donn?es officielles carburants + enrichissement OpenStreetMap/BAN;;;;;;;;
62360006;Total Access;43 BOULEVARD DE LA LIANE;62360;Saint-Léonard;50.689;1.619;ok_donnees_officielles_osm;;Donn?es officielles carburants + enrichissement OpenStreetMap/BAN;;;;;;;;
69380010;Esso;A6 Aire des Cheres Est;69380;Les Chères;45.903;4.73;a_verifier_google_places;correspondance OpenStreetMap ambigue;Donn?es officielles carburants + enrichissement OpenStreetMap/BAN;;;;;;;;
42380001;Super U;LE GRAND GUERET;42380;La Tourette;45.4317582;4.0709081;ok_donnees_officielles_osm;;Donn?es officielles carburants + enrichissement OpenStreetMap/BAN;;;;;;;;
58800001;bi1;RUE DU CHAMP DE FOIRE;58800;Corbigny;47.255;3.683;a_verifier_google_places;correspondance OpenStreetMap ambigue;Donn?es officielles carburants + enrichissement OpenStreetMap/BAN;;;;;;;;
27210008;Carrefour;273 RUE ALBERT SOREL;27210;Beuzeville;49.346892;0.337424;ok_donnees_officielles_osm;;Donn?es officielles carburants + enrichissement OpenStreetMap/BAN;;;;;;;;
61230006;Shell;AUTOROUTE A 28;61230;Le Sap-André;48.849;0.373;a_verifier_google_places;adresse BAN eloignee des coordonnees;Donn?es officielles carburants + enrichissement OpenStreetMap/BAN;;;;;;;;
57340004;Total Access;rue lavoisier;57340;Morhange;48.934;6.652;a_verifier_google_places;adresse BAN eloignee des coordonnees;Donn?es officielles carburants + enrichissement OpenStreetMap/BAN;;;;;;;;
74700005;Total Access;934 AV. DE GENEVE;74700;Sallanches;45.944823;6.630122;ok_donnees_officielles_osm;;Donn?es officielles carburants + enrichissement OpenStreetMap/BAN;;;;;;;;
24100019;Avia;8 boulevard Jean Moulin;24100;Bergerac;44.855706;0.478795;ok_donnees_officielles_osm;;Donn?es officielles carburants + enrichissement OpenStreetMap/BAN;;;;;;;;
25220003;Super U;Zone Artisanale des Prés Chalots;25220;Roche-lez-Beaupré;47.272266;6.1037065;ok_donnees_officielles_osm;;Donn?es officielles carburants + enrichissement OpenStreetMap/BAN;;;;;;;;
47240003;Netto;94 ROUTE DE PUYMIROL;47240;Lafox;44.1681072;0.7029287;ok_donnees_officielles_osm;;Donn?es officielles carburants + enrichissement OpenStreetMap/BAN;;;;;;;;
41100006;TotalEnergies;35, AVENUE GERARD YVON;41100;Vendôme;47.797;1.059;ok_donnees_officielles_osm;;Donn?es officielles carburants + enrichissement OpenStreetMap/BAN;;;;;;;;
84550004;Esso;Aire de Mornas Village - Autoroute A7 - Sens Lyon Marseille;84550;Mornas;44.195;4.731;a_verifier_google_places;adresse BAN eloignee des coordonnees;Donn?es officielles carburants + enrichissement OpenStreetMap/BAN;;;;;;;;
29710004;U;RUE DES ECOLES;29710;Landudec;48.001;-4.336;a_verifier_google_places;adresse BAN eloignee des coordonnees;Donn?es officielles carburants + enrichissement OpenStreetMap/BAN;;;;;;;;
77380001;Intermarché;Rue Charles FABRY;77380;Combs-la-Ville;48.649;2.563;ok_donnees_officielles_osm;;Donn?es officielles carburants + enrichissement OpenStreetMap/BAN;;;;;;;;
76490002;Carrefour;Rue Sainte-Gertrude;76490;Rives-en-Seine;49.5288954;0.7222668;ok_donnees_officielles_osm;;Donn?es officielles carburants + enrichissement OpenStreetMap/BAN;;;;;;;;
95220006;TotalEnergies;34, AV. DE LA LIBERATION;95220;Herblay-sur-Seine;49.0023574;2.1861605;ok_donnees_officielles_osm;;Donn?es officielles carburants + enrichissement OpenStreetMap/BAN;;;;;;;;
61320002;Elan;ROUTE DE LA FERTE MACE;61320;Carrouges;48.570162;-0.150606;ok_donnees_officielles_osm;;Donn?es officielles carburants + enrichissement OpenStreetMap/BAN;;;;;;;;
50600002;Carrefour;7 ZA la Rivière;50600;Grandparigny;48.5818543;-1.0884002;ok_donnees_officielles_osm;;Donn?es officielles carburants + enrichissement OpenStreetMap/BAN;;;;;;;;
47700002;Intermarché;16 rue Pierre Dufiet;47700;Casteljaloux;44.319;0.093;ok_donnees_officielles_osm;;Donn?es officielles carburants + enrichissement OpenStreetMap/BAN;;;;;;;;
82000007;Elan;395 AVENUE DE BORDEAUX;82000;Montauban;44.025;1.331;ok_donnees_officielles_osm;;Donn?es officielles carburants + enrichissement OpenStreetMap/BAN;;;;;;;;
59440001;Carrefour;ROUTE DE LANDRECIES;59440;Avesnelles;50.1191142;3.9261806;ok_donnees_officielles_osm;;Donn?es officielles carburants + enrichissement OpenStreetMap/BAN;;;;;;;;
31860006;Carrefour;21 CHEMIN DE LA CROISETTE;31860;Pins-Justaret;43.481062;1.385431;ok_donnees_officielles_osm;;Donn?es officielles carburants + enrichissement OpenStreetMap/BAN;;;;;;;;
77910001;Total;17 Avenue des Américains;77910;Varreddes;49.00096;2.92102;ok_donnees_officielles_osm;;Donn?es officielles carburants + enrichissement OpenStreetMap/BAN;;;;;;;;
28220002;Intermarché;route de romilly;28220;Cloyes-les-Trois-Rivières;47.99;1.256;a_verifier_google_places;adresse BAN eloignee des coordonnees;Donn?es officielles carburants + enrichissement OpenStreetMap/BAN;;;;;;;;
91460013;Esso;N104 LIEUDIT BEAUVERT;91460;Marcoussis;48.648;2.189;a_verifier_google_places;adresse BAN eloignee des coordonnees;Donn?es officielles carburants + enrichissement OpenStreetMap/BAN;;;;;;;;
11200007;Système U;ROUTE DEPARTEMENTALE 610;11200;Homps;43.2657514;2.7167027;ok_donnees_officielles_osm;;Donn?es officielles carburants + enrichissement OpenStreetMap/BAN;;;;;;;;
26200008;Auchan;24 avenue John Fitzgerald Kennedy;26200;Montélimar;44.555137;4.737433;ok_donnees_officielles_osm;;Donn?es officielles carburants + enrichissement OpenStreetMap/BAN;;;;;;;;
57320004;Intermarché;1 RUE DE METZ;57320;Bouzonville;49.288;6.53;ok_donnees_officielles_osm;;Donn?es officielles carburants + enrichissement OpenStreetMap/BAN;;;;;;;;
68124002;;1 ROUTE DE TURCKHEIM;68124;Wintzenheim;48.08594;7.31377;a_verifier_google_places;enseigne inconnue, adresse BAN eloignee des coordonnees, correspondance OpenStreetMap ambigue;Donn?es officielles carburants + enrichissement OpenStreetMap/BAN;;;;;;;;
50380003;Intermarché;189 rue de Jersey;50380;Saint-Pair-sur-Mer;48.814;-1.544;ok_donnees_officielles_osm;;Donn?es officielles carburants + enrichissement OpenStreetMap/BAN;;;;;;;;
7130005;Total;102 avenue du colonel Rousset;07130;Cornas;44.958;4.847;ok_donnees_officielles_osm;;Donn?es officielles carburants + enrichissement OpenStreetMap/BAN;;;;;;;;
62610005;Carrefour;Zac du pont sans pareil;62610;Ardres;50.881;1.972;ok_donnees_officielles_osm;;Donn?es officielles carburants + enrichissement OpenStreetMap/BAN;;;;;;;;
91270003;BP;54 Avenue Henri Barbusse;91270;Vigneux-sur-Seine;48.7;2.42;ok_donnees_officielles_osm;;Donn?es officielles carburants + enrichissement OpenStreetMap/BAN;;;;;;;;
82440003;TotalEnergies;38 RD 820;82440;Réalville;44.116;1.48;ok_donnees_officielles_osm;;Donn?es officielles carburants + enrichissement OpenStreetMap/BAN;;;;;;;;
49300007;Carrefour;avenue d angers;49300;Cholet;47.075;-0.843;a_verifier_google_places;adresse BAN eloignee des coordonnees;Donn?es officielles carburants + enrichissement OpenStreetMap/BAN;;;;;;;;
49460001;Intermarché;Rue du 11 Novembre 1918;36240;Écueillé;47.08083;1.346482;ok_donnees_officielles_osm;;Donn?es officielles carburants + enrichissement OpenStreetMap/BAN;;;;;;;;
94430007;Total Access;79 RUE DES FUSILLES DE CHATEAUBR;94430;Chennevières-sur-Marne;48.799;2.543;ok_donnees_officielles_osm;;Donn?es officielles carburants + enrichissement OpenStreetMap/BAN;;;;;;;;
31500008;Total;151 AVENUE JEAN CHAUBET;31500;Toulouse;43.606;1.481;ok_donnees_officielles_osm;;Donn?es officielles carburants + enrichissement OpenStreetMap/BAN;;;;;;;;
31240002;Elan;AVENUE DE BAYONNE;31240;L'Union;43.649;1.484;ok_donnees_officielles_osm;;Donn?es officielles carburants + enrichissement OpenStreetMap/BAN;;;;;;;;
89000004;Total;16 Boulevard Vaulabelle;89000;Auxerre;47.793;3.575;ok_donnees_officielles_osm;;Donn?es officielles carburants + enrichissement OpenStreetMap/BAN;;;;;;;;
14100003;E.Leclerc;ROUTE DE PARIS;14100;Lisieux;49.1446762;0.2654984;ok_donnees_officielles_osm;;Donn?es officielles carburants + enrichissement OpenStreetMap/BAN;;;;;;;;
26240006;Intermarché;INTERVAL - 1 CHEMIN DE LA BRASSIERE;26240;Saint-Vallier;45.172476;4.8128852;ok_donnees_officielles_osm;;Donn?es officielles carburants + enrichissement OpenStreetMap/BAN;;;;;;;;
76950001;Total;32 rue de Dieppe;76950;Les Grandes-Ventes;49.789;1.222;ok_donnees_officielles_osm;;Donn?es officielles carburants + enrichissement OpenStreetMap/BAN;;;;;;;;
57740007;Total Access;RN 3;57740;Longeville-lès-Saint-Avold;49.1095948;6.6845942;ok_donnees_officielles_osm;;Donn?es officielles carburants + enrichissement OpenStreetMap/BAN;;;;;;;;
50370002;Super U;5 Rue Jeanne d'Arc;50370;Brécey;48.722418;-1.167046;ok_donnees_officielles_osm;;Donn?es officielles carburants + enrichissement OpenStreetMap/BAN;;;;;;;;
55110003;Station communale de Dun-sur-Meuse;29 rue Ste Marguerite;55110;Dun-sur-Meuse;49.391;5.183;ok_donnees_officielles_osm;;Donn?es officielles carburants + enrichissement OpenStreetMap/BAN;;;;;;;;
42110003;Intermarché;Route de Roanne RN 82;42110;Civens;45.753387;4.219698;a_verifier_google_places;adresse BAN eloignee des coordonnees;Donn?es officielles carburants + enrichissement OpenStreetMap/BAN;;;;;;;;
20230011;Total;ALISTRO;20230;San-Giuliano;42.259;9.547;a_verifier_google_places;adresse BAN eloignee des coordonnees;Donn?es officielles carburants + enrichissement OpenStreetMap/BAN;;;;;;;;
81990002;Intermarché;Chemin de Cap Long;81990;Le Sequestre;43.910954;2.129438;ok_donnees_officielles_osm;;Donn?es officielles carburants + enrichissement OpenStreetMap/BAN;;;;;;;;
67800011;TotalEnergies;20 ROUTE DE BRUMATH;67800;Hœnheim;48.620948;7.731216;ok_donnees_officielles_osm;;Donn?es officielles carburants + enrichissement OpenStreetMap/BAN;;;;;;;;
46200003;E.Leclerc;Avenue de Verdun;46200;Souillac;44.898;1.463;ok_donnees_officielles_osm;;Donn?es officielles carburants + enrichissement OpenStreetMap/BAN;;;;;;;;
